id,name,extra,area,meters,section,region,feet,summited,lat,lng,link,description,pictureURL,starting_point_link
1,A' Bhuidheanach Bheag,,Cairngorms,936,05B,05B: Loch Ericht to Glen Tromie & Glen Garry,3071,FALSE,56.870342,-4.199001,https://www.walkhighlands.co.uk/munros/a-bhuidheanach-bheag,"A' Bhuidheanach Bheag is a broad, domed summit on the spacious plateau to the east of the Drumochter Pass. The plateau lacks distinctive landforms but is wild and desolate.",https://d3teiib5p3f439.cloudfront.net/munros/a-bhuidheanach-bheag2.jpg,"https://www.google.com/maps/search/56.90890,-4.23660/"
2,A' Chailleach,,Cairngorms,929,09B,09B: Glen Albyn and the Monadh Liath,3049,FALSE,57.109564,-4.179285,https://www.walkhighlands.co.uk/munros/a-chailleach-monadhliath,"A' Chailleach is a familiar sight from the area around Newtonmore. Topped by a big cairn, it is the most ascended and perhaps the finest of the Monadhliath.",https://d3teiib5p3f439.cloudfront.net/munros/a-chailleach-monadhliath2.jpg,"https://www.google.com/maps/search/57.07050,-4.15760/"
3,A' Chailleach,,Ullapool,999,14B,14B: The Fannaichs,3276,FALSE,57.693773,-5.128713,https://www.walkhighlands.co.uk/munros/a-chailleach,A' Chailleach is the westernmost of the Fannichs and has fine views over the Fisherfield Forest and to An Teallach.,https://d3teiib5p3f439.cloudfront.net/munros/a-chailleach2.jpg,"https://www.google.com/maps/search/57.73740,-5.09000/"
4,A' Chralaig,,Kintail,1120,11B,11B: Glen Affric to Glen Moriston,3675,FALSE,57.184186,-5.154837,https://www.walkhighlands.co.uk/munros/a-chralaig,"a' Chralaig is a massive mountain and, despite being lesser known than many of its neighbours, is actually the highest summit in Kintail. The ascent from the Cluanie Inn is an unrelenting slog but it leads up to a very fine ridge and superb views.",https://d3teiib5p3f439.cloudfront.net/munros/a-chralaig2.jpg,"https://www.google.com/maps/search/57.15960,-5.16470/"
5,A' Ghlas-bheinn,,Kintail,918,11A,11A: Loch Duich to Cannich,3012,FALSE,57.255081,-5.303686,https://www.walkhighlands.co.uk/munros/a-ghlas-bheinn,A' Ghlas-bheinn is a rough and rocky little mountain that is well seen from near Morvich in Kintail. Its ascent can easily be combined with a visit to the famous Falls of Glomach.,https://d3teiib5p3f439.cloudfront.net/munros/a-ghlas-bheinn2.jpg,"https://www.google.com/maps/search/57.23480,-5.38090/"
6,A' Mhaighdean,,Ullapool,967,14A,14A: Loch Maree to Loch Broom,3173,FALSE,57.719653,-5.346721,https://www.walkhighlands.co.uk/munros/a-mhaighdean,"A' Mhaighdean is often regarded as the remotest of the Munros, deep in the heart of the Fisherfield Forest. It is a magnificent castellated mountain with dramatic cliffs, and one of the finest viewpoints in Britain.",https://d3teiib5p3f439.cloudfront.net/munros/a-mhaighdean2.jpg,"https://www.google.com/maps/search/57.77680,-5.25450/"
7,A' Mharconaich,,Cairngorms,973,05A,05A: Loch Ericht to Glen Tromie & Glen Garry,3193,FALSE,56.857002,-4.290668,https://www.walkhighlands.co.uk/munros/a-mharconaich,"A' Mharconaich is the most distinctive of the mountains above the Drumochter Pass, showing a steep nose to the northeast.",https://d3teiib5p3f439.cloudfront.net/munros/a-mharconaich2.jpg,"https://www.google.com/maps/search/56.88350,-4.25360/"
8,Am Basteir,,Islands,934,17B,17B: Minginish and the Cuillin Hills,3064,FALSE,57.24794,-6.202966,https://www.walkhighlands.co.uk/munros/am-basteir,Am Basteir is a vertically-sided blade of rock whose ascent is only possible for keen scramblers from Bealach a Basteir. Below the summit of the mountain is the remarkable lesser peak of the Basteir Tooth - an imposing fang of rock that can only be reached by rock-climbers.,https://d3teiib5p3f439.cloudfront.net/munros/am-basteir2.jpg,"https://www.google.com/maps/search/57.28910,-6.17690/"
9,Am Bodach,,Fort William,1032,04A,04A: Fort William to Loch Treig & Loch Leven,3385,FALSE,56.74173,-4.98337,https://www.walkhighlands.co.uk/munros/am-bodach,"Am Bodach is a fine, steep and stony mountain on the main ridge of the Mamores between Kinlochleven and Fort William.",https://d3teiib5p3f439.cloudfront.net/munros/am-bodach2.jpg,"https://www.google.com/maps/search/56.77770,-5.00034/"
10,Am Faochagach,,Ullapool,953,15A,15A: Loch Broom to Strath Oykel,3127,FALSE,57.771801,-4.853882,https://www.walkhighlands.co.uk/munros/am-faochagach,Am Faochagach is a rounded Munro to the north of the Dirrie Mòr (Ullapool) road. The main difficulty is the short approach across the first flat section of moor-  there are bogs and a potentially difficult river crossing to negotiate. The ascent of the peak itself is more straightforward.,https://d3teiib5p3f439.cloudfront.net/munros/am-faochagach-1.JPG,"https://www.google.com/maps/search/57.72480,-4.89430/"
11,An Caisteal,,Loch Lomond,996,01C,01C: Loch Lomond to Strathyre,3267,FALSE,56.338618,-4.62437,https://www.walkhighlands.co.uk/munros/an-caisteal,An Caisteal takes the form of a long ridged mountain to the south of Crianlarich. Its traverse is very enjoyable with interesting features and extensive views over the area.,https://d3teiib5p3f439.cloudfront.net/munros/an-caisteal-1.JPG,"https://www.google.com/maps/search/56.37900,-4.64300/"
12,An Coileachan,,Ullapool,924,14B,14B: The Fannaichs,3031,FALSE,57.667625,-4.949498,https://www.walkhighlands.co.uk/munros/an-coileachan,"An Coileachan is the easternmost of the Fannichs, a steep-sided dome rising to the south of Loch Gorm. Whilst it is only a short distance from the track to Loch Fannich, the usual approach from the north is a long slog across the bogs.",https://d3teiib5p3f439.cloudfront.net/munros/an-coileachan-1.JPG,"https://www.google.com/maps/search/57.72480,-4.89430/"
13,An Gearanach,,Fort William,982,04A,04A: Fort William to Loch Treig & Loch Leven,3220,FALSE,56.759172,-4.96623,https://www.walkhighlands.co.uk/munros/an-gearanach,An Gearanach is a magnificent ridge extending north from the main spine of the Mamores. The summit and intervening ridge is a narrow arete reminiscent of that between Càrn Mòr Dearg and Ben Nevis. ,https://d3teiib5p3f439.cloudfront.net/munros/an-gearanach-1.JPG,"https://www.google.com/maps/search/56.77770,-5.00034/"
14,An Riabhachan,,Loch Ness,1129,12B,12B: Killilan to Inverness,3704,FALSE,57.362429,-5.104728,https://www.walkhighlands.co.uk/munros/an-riabhachan,"An Riabhachan is a massive ridged mountain to the north of Loch Mullardoch. It can be combined with neighbouring summits to make an epic day, whether tackled from Loch Mullardoch or from upper Glen Strathfarrar to the north.",https://d3teiib5p3f439.cloudfront.net/munros/an-riabhachan-1.JPG,"https://www.google.com/maps/search/57.33990,-4.96150/"
15,An Sgarsoch,,Cairngorms,1007,06A,06A: Glen Tromie to Glen Tilt,3302,FALSE,56.932109,-3.754294,https://www.walkhighlands.co.uk/munros/an-sgarsoch,"An Sgarsoch is rounded and unspectacular, but it must rank amongst the remotest in Scotland, lying as it does in the very lonely country linking the Mounth to the Cairngorms. It requires a very long approachs from any direction.",https://d3teiib5p3f439.cloudfront.net/munros/an-sgarsoch-1.JPG,"https://www.google.com/maps/search/56.98940,-3.54350/"
16,An Socach,Braemar,Cairngorms,944,06B,06B: Pitlochry to Braemar & Blairgowrie,3097,FALSE,56.902286,-3.513164,https://www.walkhighlands.co.uk/munros/an-socach-braemar,"An Socach is an undistinguished wedge-shaped mountain which can be climbed quicky from Baddoch in Glen Clunie. In its favour, it is an escape from the ski-developments at the head of the glen.",https://d3teiib5p3f439.cloudfront.net/munros/an-socach-braemar-1.JPG,"https://www.google.com/maps/search/56.93130,-3.41700/"
17,An Socach,Affric,Loch Ness,920,11A,11A: Loch Duich to Cannich,3017,FALSE,57.25755,-5.171311,https://www.walkhighlands.co.uk/munros/an-socach-affric,"An Socach is an exceptionally remote Munro at the head of Glen Affric. It is really the eastern termination of the east ridge of Sgùrr nan Ceathreamhnan and is often climbed with that peak, though it can be ascended on its own as a long day from the road end in Glen Affric.",https://d3teiib5p3f439.cloudfront.net/munros/an-socach-affric-1.JPG,"https://www.google.com/maps/search/57.23220,-5.18340/"
18,An Socach,Mullardoch,Loch Ness,1069,12B,12B: Killilan to Inverness,3507,FALSE,57.350229,-5.158603,https://www.walkhighlands.co.uk/munros/an-socach-mullardoch,"An Socach is one of three Munros of that name; this one is deep in wild and inaccessible country above the upper part of Loch Mullardoch. It can be reached by following the very rough path along the loch, approached from Glen Strathfarrar to the north or via a very long walk from Killilan in Kintail.",https://d3teiib5p3f439.cloudfront.net/munros/an-socach-mullardoch-1.JPG,"https://www.google.com/maps/search/57.33990,-4.96150/"
19,An Stuc,,Perthshire,1117,02B,02B: Glen Lyon to Glen Dochart & Loch Tay,3665,FALSE,56.560084,-4.216248,https://www.walkhighlands.co.uk/munros/an-stuc,"An Stùc was promoted to Munro status in 1997 and is the steepest and sharpest of the Ben Lawers range. When approaching from Meall Garbh the ascent is extremely steep, exposed and loose.",https://d3teiib5p3f439.cloudfront.net/munros/an-stuc-1.JPG,"https://www.google.com/maps/search/56.52950,-4.15186/"
20,Bidein a' Ghlas Thuill,An Teallach,Ullapool,1063,14A,14A: Loch Maree to Loch Broom,3486,FALSE,57.807098,-5.251767,https://www.walkhighlands.co.uk/munros/bidein-a-ghlas-thuill-an-teallach,"Bidein a' Ghlas Thuill is the highest summit of magnificent An Teallach, and despite being less dramatic than neighbouring Sgùrr Fiona it is the best viewpoint on the mountain and one of the most dramatic in Britain. Usually tackled as part of a complete ridge traverse, it can equally well be climbed on its own.",https://d3teiib5p3f439.cloudfront.net/munros/bidein-a-ghlas-thuill-an-teallach-1.JPG,"https://www.google.com/maps/search/57.84000,-5.21500/"
21,Sgurr Fiona,An Teallach,Ullapool,1059,14A,14A: Loch Maree to Loch Broom,3473,FALSE,57.800726,-5.259443,https://www.walkhighlands.co.uk/munros/sgurr-fiona-an-teallach,Sgùrr Fiona is the finer of the two Munro summits on the magnificent ridge of An Teallach. It is a perfect pyramid of rock and guards the beginning of the trickiest part of the traverse.,https://d3teiib5p3f439.cloudfront.net/munros/sgurr-fiona-an-teallach-1.JPG,"https://www.google.com/maps/search/57.84000,-5.21500/"
22,Aonach air Chrith,,Kintail,1020,10A,10A: Glen Shiel to Loch Hourn and Loch Quoich,3345,FALSE,57.12464,-5.221291,https://www.walkhighlands.co.uk/munros/aonach-air-chrith,Aonach Air Chrith is the highest of the seven Munros on the south Glen Shiel ridge. One section of the west ridge is very narrow and there is also a fine spur to the north.,https://d3teiib5p3f439.cloudfront.net/munros/aonach-air-chrith-1.JPG,"https://www.google.com/maps/search/57.15600,-5.17815/"
23,Aonach Beag,Nevis Range,Fort William,1234,04A,04A: Fort William to Loch Treig & Loch Leven,4049,FALSE,56.799998,-4.954138,https://www.walkhighlands.co.uk/munros/aonach-beag-nevis-range,"Aonach Beag is second highest summit in the Nevis Range, but is hidden from most views by the lower but more bulky Aonach Mòr. Its domed summit rises above extensive broken crags and corries.",https://d3teiib5p3f439.cloudfront.net/munros/aonach-beag-nevis-range-1.JPG,"https://www.google.com/maps/search/56.77770,-5.00031/"
24,Aonach Beag,Alder,Cairngorms,1116,04B,04B: Loch Treig to Loch Ericht,3661,FALSE,56.833498,-4.529175,https://www.walkhighlands.co.uk/munros/aonach-beag-alder,"Aonach Beag is part of the high mountain ridge situated just to the north of Ben Alder. It has a dome-shaped form, with three radiating ridges and steep flanks, making part of a grand ridge walk.",https://d3teiib5p3f439.cloudfront.net/munros/aonach-beag-alder-1.JPG,"https://www.google.com/maps/search/56.85350,-4.42380/"
25,Meall Dearg,Aonach Eagach,Fort William,952,03A,03A: Loch Leven to Rannoch Station,3124,FALSE,56.68074,-5.003235,https://www.walkhighlands.co.uk/munros/meall-dearg-aonach-eagach,"Meall Dearg is the central summit on the celebrated Aonach Eagach ridge. Usually reached as part of the hard scramble along the ridge en route to Sgòrr nam Fiannaidh, it can be ascended on its own by vertigo sufferers by an approach from the north side.",https://d3teiib5p3f439.cloudfront.net/munros/meall-dearg-aonach-eagach-1.JPG,"https://www.google.com/maps/search/56.66660,-4.98240/"
26,Sgorr nam Fiannaidh,Aonach Eagach,Fort William,968,03A,03A: Loch Leven to Rannoch Station,3175,FALSE,56.679387,-5.037143,https://www.walkhighlands.co.uk/munros/sgorr-nam-fiannaidh-aonach-eagach,"Sgòrr nam Fiannaidh is the western summit of the Aonach Eagach. Usually it is reached as part of the classic, hard scramble along the ridge, taking in Meall Dearg as well, but for non-scramblers it is possible to climb it via the path to the bealach with the Pap of Glencoe.",https://d3teiib5p3f439.cloudfront.net/munros/sgorr-nam-fiannaidh-aonach-eagach-1.JPG,"https://www.google.com/maps/search/56.66660,-4.98240/"
27,Aonach Meadhoin,,Kintail,1001,11A,11A: Loch Duich to Cannich,3284,FALSE,57.173026,-5.229166,https://www.walkhighlands.co.uk/munros/aonach-meadhoin,Aonach Meadhoin is a Munro on the Brothers ridge on the north side of Glen Shiel. It is situated between fine Sgùrr a Bhealach Dheirg and the prominent Top of Sgùrr an Fhuaraill.,https://d3teiib5p3f439.cloudfront.net/munros/aonach-meadhoin-1.JPG,"https://www.google.com/maps/search/57.16960,-5.29450/"
28,Aonach Mor,,Fort William,1220,04A,04A: Fort William to Loch Treig & Loch Leven,4004,FALSE,56.812941,-4.961712,https://www.walkhighlands.co.uk/munros/aonach-mor,"Although lower than neighbouring Aonach Beag, Aonach Mòr derives the 'Mòr' tag from its greater bulk, hiding its higher neighbour. It is well seen from the Commando Memorial but this side of the mountain is scarred by ski-developments.",https://d3teiib5p3f439.cloudfront.net/munros/aonach-mor-1.JPG,"https://www.google.com/maps/search/56.77770,-5.00031/"
29,Sgorr Dhearg,Beinn a’Bheithir,Fort William,1024,03B,03B: Loch Linnhe to Loch Etive,3360,FALSE,56.65393,-5.171511,https://www.walkhighlands.co.uk/munros/sgorr-dhearg-beinn-a-bheithir,"Sgòrr Dhearg is the highest of the two Munros on Beinn a'Bheithir, and is the termination of a gracefully arched ridge from the Top of Sgòrr Bhan. It is a tremendous mountain and looks very fine from the north side of Loch Leven.",https://d3teiib5p3f439.cloudfront.net/munros/sgorr-dhearg-beinn-a-bheithir-1.JPG,"https://www.google.com/maps/search/56.67830,-5.12981/"
30,Sgorr Dhonuill,Beinn a’Bheithir,Fort William,1002,03B,03B: Loch Linnhe to Loch Etive,3288,FALSE,56.650531,-5.19789,https://www.walkhighlands.co.uk/munros/sgorr-dhonuill-beinn-a-bheithir,"Sgòrr Dhònuill is the western Munro of Beinn a'Bheithir, a magnificent peak and a superb viewpoint with fine mountains, long lochs and the sea all prominent.",https://d3teiib5p3f439.cloudfront.net/munros/sgorr-dhonuill-beinn-a-bheithir-1.JPG,"https://www.google.com/maps/search/56.67830,-5.12981/"
31,Beinn a' Bhuird,,Cairngorms,1196,08B,08B: Cairngorms,3924,FALSE,57.08759,-3.499383,https://www.walkhighlands.co.uk/munros/beinn-a-bhuird,"Beinn a' Bhuird is one of the giants of the Cairngorms, a mountain of immense bulk. Its spacious plateau forms the rim above some magnificent corries,  with the remote Garbh Choire being the finest.  The mountain can be approached either through the pinewoods of Glen Quoich or the moors of Gleann an t-Slugain.",https://d3teiib5p3f439.cloudfront.net/munros/beinn-a-bhuird-1.JPG,"https://www.google.com/maps/search/57.00170,-3.45540/"
32,Beinn a' Chaorainn,Cairngorms,Cairngorms,1083,08B,08B: Cairngorms,3554,FALSE,57.093272,-3.577434,https://www.walkhighlands.co.uk/munros/beinn-a-chaorainn-cairngorms,"Beinn a' Chaorainn guards the eastern side of the famous Lairig an Laoigh pass through the Cairngorms. The slopes above the pass are steep, but south of the domed summit is the vast mossy plateau of the Moine Bhealaidh. ",https://d3teiib5p3f439.cloudfront.net/munros/beinn-a-chaorainn-cairngorms-1.JPG,"https://www.google.com/maps/search/56.99000,-3.54430/"
33,Beinn a' Chaorainn,Glen Spear,Fort William,1049,09C,09C: Loch Lochy to Loch Laggan,3442,FALSE,56.928624,-4.653644,https://www.walkhighlands.co.uk/munros/beinn-a-chaorainn-glen-spean,"Beinn a' Chaorainn is a straightforward north-south ridge of three summits, rising above the forestry to the north of Loch Laggan. Its eastern flanks are carved into steep corries but the slopes to the west are more featureless. ",https://d3teiib5p3f439.cloudfront.net/munros/beinn-a-chaorainn-glen-spean-1.JPG,"https://www.google.com/maps/search/56.89510,-4.66560/"
34,Beinn a' Chlachair,,Fort William,1088,04B,04B: Loch Treig to Loch Ericht,3569,FALSE,56.869534,-4.509668,https://www.walkhighlands.co.uk/munros/beinn-a-chlachair,"Beinn a' Chlachair is the highest of a group of three Munros in the Ardverikie Forest south of Loch Laggan. Its finest feature is Coire Mòr a' Chlachair, a fine corrie on its northern flanks. The mountain has a spacious plateau but presents a forbidding wall to remote An Lairig to the south, whilst on all other sides it is very steep.",https://d3teiib5p3f439.cloudfront.net/munros/beinn-a-chlachair-1.JPG,"https://www.google.com/maps/search/56.91220,-4.57556/"
35,Beinn a' Chleibh,,Argyll,916,01D,01D: Inveraray to Crianlarich,3006,FALSE,56.39023,-4.83563,https://www.walkhighlands.co.uk/munros/beinn-a-chleibh,"Beinn a' Chlèibh only just makes Munro status and is overshadowed by its far more celebrated neighbour Ben Lui, with which it is usually climbed. It presents forbiddingly steep slopes to Glen Lochay.",https://d3teiib5p3f439.cloudfront.net/munros/beinn-a-chleibh-1.JPG,"https://www.google.com/maps/search/56.40990,-4.85552/"
36,Beinn a' Chochuill,,Argyll,980,03C,03C: Glen Etive to Glen Lochy,3215,FALSE,56.44979,-5.068552,https://www.walkhighlands.co.uk/munros/beinn-a-chochuill,"Beinn a' Chochuill is somewhat hidden away behind the more celebrated Ben Cruachan range. It has a long, almost level summit ridge providing good views both of Cruachan, and over Glen Kinglas and Loch Etive to the north.",https://d3teiib5p3f439.cloudfront.net/munros/beinn-a-chochuill-1.JPG,"https://www.google.com/maps/search/56.41450,-5.02331/"
37,Beinn a' Chreachain,,Argyll,1081,02A,02A: Loch Rannoch to Glen Lyon,3545,FALSE,56.560387,-4.647589,https://www.walkhighlands.co.uk/munros/beinn-a-chreachain,"Beinn a' Chreachain is the easternmost of the four Bridge of Orchy Munros. Although not as fine as neighbouring Beinn Achaladair, it has impressive Coire an Lochain on its northern flank, harbouring a lovely lochan, whilst its summit looks out over the immense flatness of Rannoch Moor. ",https://d3teiib5p3f439.cloudfront.net/munros/beinn-a-chreachain-1.JPG,"https://www.google.com/maps/search/56.55560,-4.74610/"
38,Beinn a' Chroin,,Loch Lomond,941,01C,01C: Loch Lomond to Strathyre,3089,FALSE,56.331991,-4.609644,https://www.walkhighlands.co.uk/munros/beinn-a-chroin,"Beinn a' Chròin is a surprisingly rocky little mountain to the south of Crianlarich. The location of the true summit has been the subject of controversy; that with the largest cairn was regarded as the top for many years, but the higher, Munro summit is actually that further west along the ridge.",https://d3teiib5p3f439.cloudfront.net/munros/beinn-a-chroin-1.JPG,"https://www.google.com/maps/search/56.37900,-4.64300/"
39,Braigh Coire Chruinn-bhalgain,Beinn a’ Ghlo,Perthshire,1070,06B,06B: Pitlochry to Braemar & Blairgowrie,3510,FALSE,56.831101,-3.729489,https://www.walkhighlands.co.uk/munros/braigh-coire-chruinn-bhalgain,"The central summit of the Beinn a' Ghlò massif, Braigh Coire Chruinn-bhalgain is a complex hill with twisting ridges and steep sides. It enjoys a fine position above beautiful Glen Tilt.",https://d3teiib5p3f439.cloudfront.net/munros/braigh-coire-chruinn-bhalgain-1.JPG,"https://www.google.com/maps/search/56.78260,-3.79260/"
40,Carn Liath,Beinn a’ Ghlo,Perthshire,976,06B,06B: Pitlochry to Braemar & Blairgowrie,3201,FALSE,56.80777,-3.74409,https://www.walkhighlands.co.uk/munros/carn-liath-beinn-a-ghlo,"Càrn Liath is the lowest of Beinn a' Ghlò's three summits, but it is also the most accessible - and the most prominent when seen from the main A9 road.",https://d3teiib5p3f439.cloudfront.net/munros/carn-liath-beinn-a-ghlo-1.JPG,"https://www.google.com/maps/search/56.78260,-3.79260/"
41,Carn nan Gabhar,Beinn a’ Ghlo,Perthshire,1122,06B,06B: Pitlochry to Braemar & Blairgowrie,3681,FALSE,56.839846,-3.688022,https://www.walkhighlands.co.uk/munros/carn-nan-gabhar,Càrn nan Gabhar is the highest and remotest summit of Beinn a' Ghlò. It offers views across the empty wilderness of the Mounth and makes a fine termination to a grand  ridge-walk.,https://d3teiib5p3f439.cloudfront.net/munros/carn-nan-gabhar-1.JPG,"https://www.google.com/maps/search/56.78260,-3.79260/"
42,Beinn Achaladair,,Argyll,1039,02A,02A: Loch Rannoch to Glen Lyon,3407,FALSE,56.551909,-4.694515,https://www.walkhighlands.co.uk/munros/beinn-achaladair,"Beinn Achaladair is perhaps the finest of the four Bridge of Orchy Munros. It presents an impressive north face to the wonderful pinewoods of the Black Wood of Rannoch, and its view over Loch Tulla and Rannoch Moor to the Black Mount and Glencoe is superb.",https://d3teiib5p3f439.cloudfront.net/munros/beinn-achaladair-1.JPG,"https://www.google.com/maps/search/56.55560,-4.74610/"
43,Sgurr Mor,Beinn Alligin,Torridon,986,13A,13A: Loch Torridon to Loch Maree,3235,FALSE,57.590829,-5.572765,https://www.walkhighlands.co.uk/munros/sgurr-mor-beinn-alligin,"Sgùrr Mòr is the very fine main summit of Beinn Alligin, taking the form of a graceful dome. It is a truly spectacular viewpoint, both for Skye across the sea and for the Horns and Liathach inland.",https://d3teiib5p3f439.cloudfront.net/munros/sgurr-mor-beinn-alligin-1.JPG,"https://www.google.com/maps/search/57.55890,-5.56391/"
44,Tom na Gruagaich,Beinn Alligin,Torridon,922,13A,13A: Loch Torridon to Loch Maree,3025,FALSE,57.580519,-5.581912,https://www.walkhighlands.co.uk/munros/tom-na-gruagaich-beinn-alligin,"Tom na Gruagaich, formerly a Top, was promoted to become the second Munro of Beinn Alligin in 1997. It has sensational views over the sea to Skye and for most walkers is the start of the sensational traverse of the mountain.",https://d3teiib5p3f439.cloudfront.net/munros/tom-na-gruagaich-beinn-alligin-1.JPG,"https://www.google.com/maps/search/57.55890,-5.56391/"
45,Beinn an Dothaidh,,Argyll,1004,02A,02A: Loch Rannoch to Glen Lyon,3294,FALSE,56.53013,-4.713981,https://www.walkhighlands.co.uk/munros/beinn-an-dothaidh,"Although far less known than its neighbour Beinn Dòrain, Beinn an Dòthaidh is the finer viewpoint, the cairn on the edge of the steep northern side having a magnificent aerial panorama over Loch Tulla and Rannoch Moor. ",https://d3teiib5p3f439.cloudfront.net/munros/beinn-an-dothaidh-1.JPG,"https://www.google.com/maps/search/56.51690,-4.76920/"
46,Beinn Bheoil,,Cairngorms,1019,04B,04B: Loch Treig to Loch Ericht,3343,FALSE,56.813276,-4.430662,https://www.walkhighlands.co.uk/munros/beinn-bheoil,"Almost always climbed with its great parent mountain Ben Alder, remote Bheinn Bheoil is a straightforward ridge running high above Loch Ericht.",https://d3teiib5p3f439.cloudfront.net/munros/beinn-bheoil-1.JPG,"https://www.google.com/maps/search/56.85350,-4.42380/"
47,Beinn Bhreac,,Cairngorms,930,08B,08B: Cairngorms,3052,FALSE,57.055072,-3.553472,https://www.walkhighlands.co.uk/munros/beinn-bhreac,"Beinn Bhreac is a lowly Munro by Cairngorms standards, rising at the southern end of a vast boggy moorland. It enjoys a fine setting high above beautiful Glen Derry.",https://d3teiib5p3f439.cloudfront.net/munros/beinn-bhreac-1.JPG,"https://www.google.com/maps/search/56.99000,-3.54430/"
48,Beinn Bhrotain,,Cairngorms,1157,08A,08A: Cairngorms,3796,FALSE,57.009868,-3.723797,https://www.walkhighlands.co.uk/munros/beinn-bhrotain,"Beinn Bhrotain is a huge, sprawling mountain rising in an extremely remote location on the west side of Glen Dee. Its northern side falls precipitously down to the great trench of Glen Geusachan.",https://d3teiib5p3f439.cloudfront.net/munros/beinn-bhrotain-1.JPG,"https://www.google.com/maps/search/57.06310,-3.89700/"
49,Beinn Bhuidhe,,Argyll,949,01D,01D: Inveraray to Crianlarich,3112,FALSE,56.326686,-4.906709,https://www.walkhighlands.co.uk/munros/beinn-bhuidhe,"Beinn Bhuidhe is a neglected Munro, being shyly hidden away between Glens Shira and Fyne at the head of Loch Fyne. Its uppermost ridge is suprisingly steep and rocky and is a tremendous viewpoint.",https://d3teiib5p3f439.cloudfront.net/munros/beinn-bhuidhe-1.JPG,"https://www.google.com/maps/search/56.27300,-4.91910/"
50,Beinn Chabhair,,Loch Lomond,932,01C,01C: Loch Lomond to Strathyre,3058,FALSE,56.325779,-4.641476,https://www.walkhighlands.co.uk/munros/beinn-chabhair,"Beinn Chabhair rises steeply above Inverarnan just to the north of Loch Lomond. This rocky peak is both accessible and popular; the summit is a fine viewpoint, with a good vista down Loch Long.",https://d3teiib5p3f439.cloudfront.net/munros/beinn-chabhair-1.JPG,"https://www.google.com/maps/search/56.32850,-4.72180/"
51,Ben Challum,,Argyll,1025,02B,02B: Glen Lyon to Glen Dochart & Loch Tay,3363,FALSE,56.454573,-4.619184,https://www.walkhighlands.co.uk/munros/ben-challum,"Ben Challum is usually climbed from Strath Fillan and is an undistinguished trudge from this direction until the final ridge, though the views are fine. It reserves its best outline for its remoter side above the head of Glen Lochay, from where it appears as a conical peak.",https://d3teiib5p3f439.cloudfront.net/munros/ben-challum-1.JPG,"https://www.google.com/maps/search/56.41680,-4.66690/"
52,Beinn Dearg,Blair Athol,Perthshire,1009,06A,06A: Glen Tromie to Glen Tilt,3309,FALSE,56.877346,-3.883719,https://www.walkhighlands.co.uk/munros/beinn-dearg-blair-atholl,Beinn Dearg is a dome of pink granite rising above the surrounding moorlands in the remote area north of Blair Atholl.,https://d3teiib5p3f439.cloudfront.net/munros/beinn-dearg-blair-atholl-1.JPG,"https://www.google.com/maps/search/56.77450,-3.84344/"
53,Beinn Dearg,Ullapool,Ullapool,1084,15A,15A: Loch Broom to Strath Oykel,3556,FALSE,57.78635,-4.929557,https://www.walkhighlands.co.uk/munros/beinn-dearg-ullapool,"Beinn Dearg is the highest mountain north of the Dirrie Mòr. It is a fine dome-shaped mountain, high above deep and atmospheric corries, and a worthy crowning glory to a fine range.",https://d3teiib5p3f439.cloudfront.net/munros/beinn-dearg-ullapool-1.JPG,"https://www.google.com/maps/search/57.81980,-5.06250/"
54,Beinn Dorain,,Argyll,1076,02A,02A: Loch Rannoch to Glen Lyon,3530,FALSE,56.50287,-4.722173,https://www.walkhighlands.co.uk/munros/beinn-dorain,"Beinn Dòrain is one of the more familiar landmark hills of the Highlands, a graceful, steep grassy pyramid revealed on the drive north from Tyndrum. Outside hillwalking circles it is known for having been celebrated by the great Gaelic poet, Duncan Bàn MacIntyre.",https://d3teiib5p3f439.cloudfront.net/munros/beinn-dorain-1.JPG,"https://www.google.com/maps/search/56.51690,-4.76920/"
55,Beinn Dubhchraig,,Argyll,979,01D,01D: Inveraray to Crianlarich,3211,FALSE,56.391295,-4.743193,https://www.walkhighlands.co.uk/munros/beinn-dubhchraig,"Beinn Dubhchraig, usually climbed together with its neighbour Ben Oss, is part of the Ben Lui range of mountains. It is usually ascended from Dalrigh between Crianlarich and Tyndrum.",https://d3teiib5p3f439.cloudfront.net/munros/beinn-dubhchraig-1.JPG,"https://www.google.com/maps/search/56.42500,-4.68680/"
56,Beinn Eibhinn,,Cairngorms,1103,04B,04B: Loch Treig to Loch Ericht,3620,FALSE,56.825255,-4.542077,https://www.walkhighlands.co.uk/munros/beinn-eibhinn,"Beinn Èibhinn is a steep sided ridge curving round Coire a' Charra Mhoir. Part of the Geal Chàrn ridge system north of Ben Alder, it requires a long walk to reach it from any direction.",https://d3teiib5p3f439.cloudfront.net/munros/beinn-eibhinn-1.JPG,"https://www.google.com/maps/search/56.85350,-4.42380/"
57,Ruadh-stac Mor,Beinn Eighe,Torridon,1010,13A,13A: Loch Torridon to Loch Maree,3314,FALSE,57.593735,-5.429454,https://www.walkhighlands.co.uk/munros/ruadh-stac-mor-beinn-eighe,"Beinn Eighe is one of celebrated Torridon giants. Ruadh Stac-Mhòr is its highest summit, a steep-sided dome off to the north of the main ridge, high above Coire Mhic Fhearchair, one of the finest corries in the country.",https://d3teiib5p3f439.cloudfront.net/munros/ruadh-stac-mor-beinn-eighe-1.JPG,"https://www.google.com/maps/search/57.55560,-5.41370/"
58,Spidean Coire nan Clach,Beinn Eighe,Torridon,993,13A,13A: Loch Torridon to Loch Maree,3258,FALSE,57.582098,-5.403706,https://www.walkhighlands.co.uk/munros/spidean-coire-nan-clach-beinn-eighe,"Spidean Coire nan Clach was promoted to Munro status in 1997 to become Beinn Eighe's second Munro. There is a trig point at 972 meters on the ridge but the true summit is a fine rock peak a short distance further northeast, at 992 metres.",https://d3teiib5p3f439.cloudfront.net/munros/spidean-coire-nan-clach-beinn-eighe-1.JPG,"https://www.google.com/maps/search/57.55560,-5.41370/"
59,Beinn Eunaich,,Argyll,989,03C,03C: Glen Etive to Glen Lochy,3245,FALSE,56.450352,-5.026639,https://www.walkhighlands.co.uk/munros/beinn-eunaich,Beinn Eunaich rises above the foot of Glen Strae and its slopes of grass and broken rock are steep and strenuous. It is usually combined with neighbouring Beinn a' Chochuill.,https://d3teiib5p3f439.cloudfront.net/munros/beinn-eunaich-1.JPG,"https://www.google.com/maps/search/56.41450,-5.02331/"
60,Beinn Fhada,,Kintail,1032,11A,11A: Loch Duich to Cannich,3385,FALSE,57.221002,-5.283519,https://www.walkhighlands.co.uk/munros/beinn-fhada,"Beinn Fhada has a sprawling summit plateau with steep, craggy sides and several grand corries. It is well seen in the view from Morvich near the head of Loch Duich.",https://d3teiib5p3f439.cloudfront.net/munros/beinn-fhada2.jpg,"https://www.google.com/maps/search/57.23480,-5.38090/"
61,Beinn Fhionnlaidh,,Argyll,959,03B,03B: Loch Linnhe to Loch Etive,3146,FALSE,56.600978,-5.104749,https://www.walkhighlands.co.uk/munros/beinn-fhionnlaidh,"Beinn Fhionnlaidh is a long, broad and undulating ridge running between Glen Etive and Loch Creran. It can be climbed from either direction but the route from Loch Creran avoids the worst of the forestry and gives good views out over the sea.",https://d3teiib5p3f439.cloudfront.net/munros/beinn-fhionnlaidh-1.JPG,"https://www.google.com/maps/search/56.59040,-5.20007/"
62,Beinn Fhionnlaidh,Carn Eige,Loch Ness,1005,11A,11A: Loch Duich to Cannich,3297,FALSE,57.305977,-5.129909,https://www.walkhighlands.co.uk/munros/beinn-fhionnlaidh-carn-eige,"Beinn Fhionnlaidh is a frustrating Munro for baggers, being out on the inaccessible ridge running north from Càrn Eige. Loch Mullardoch guards the foot of this ridge so most baggers have to climb over Càrn Eige twice to get out and back from this peak.",https://d3teiib5p3f439.cloudfront.net/munros/beinn-fhionnlaidh-carn-eige-1.JPG,"https://www.google.com/maps/search/57.27340,-4.96180/"
63,Beinn Ghlas,,Perthshire,1103,02B,02B: Glen Lyon to Glen Dochart & Loch Tay,3619,FALSE,56.535996,-4.236992,https://www.walkhighlands.co.uk/munros/beinn-ghlas,"Beinn Ghlas is a little known Munro but one of the most frequently climbed, the reason being that it is visited on the usual path used en-route to Ben Lawers. Almost never climbed in its own right, it supports a wonderful arctic flora and is part of the Ben Lawers National Nature Reserve.",https://d3teiib5p3f439.cloudfront.net/munros/beinn-ghlas-1.JPG,"https://www.google.com/maps/search/56.51100,-4.26287/"
64,Beinn Ime,,Loch Lomond,1012,01D,01D: Inveraray to Crianlarich,3321,FALSE,56.236794,-4.817125,https://www.walkhighlands.co.uk/munros/beinn-ime,"Beinn Ìme is the highest of the Arrochar Alps. Usually ascended by its broad southern slopes from the Bealach a'Mhàim, the other sides of the mountain are much steeper and more rugged.",https://d3teiib5p3f439.cloudfront.net/munros/beinn-ime-1.JPG,"https://www.google.com/maps/search/56.20600,-4.75070/"
65,Beinn Iutharn Mhor,,Cairngorms,1045,06B,06B: Pitlochry to Braemar & Blairgowrie,3428,FALSE,56.894994,-3.568229,https://www.walkhighlands.co.uk/munros/beinn-iutharn-mhor,Beinn Iutharn Mhòr is a steep sided mountain in the otherwise rolling wild area of the Mounth. It is usually accessed via the long Glen Ey from the north.,https://d3teiib5p3f439.cloudfront.net/munros/beinn-iutharn-mhor-1.JPG,"https://www.google.com/maps/search/56.98510,-3.50030/"
66,Beinn Liath Mhor,,Torridon,926,13B,13B: Applecross to Achnasheen,3038,FALSE,57.512083,-5.400618,https://www.walkhighlands.co.uk/munros/beinn-liath-mhor,"Beinn Liath Mhòr is a long, multiple-summited sandstone ridge with steep flanks and a summit sprinkled with white quartzite. It offers interesting views over the Coulin Forest and into Torridon.",https://d3teiib5p3f439.cloudfront.net/munros/beinn-liath-mhor-1.JPG,"https://www.google.com/maps/search/57.48170,-5.32935/"
67,Beinn Liath Mhor Fannaich,,Ullapool,954,14B,14B: The Fannaichs,3131,FALSE,57.706095,-4.989775,https://www.walkhighlands.co.uk/munros/beinn-liath-mhor-fannaich,Beinn Liath Mhòr Fannaich is a bulky Munro situated just to the north of the main Fannichs ridge. It offers good views both of the neighbouring  and over to the Beinn Dearg range.,https://d3teiib5p3f439.cloudfront.net/munros/beinn-liath-mhor-fannaich-1.JPG,"https://www.google.com/maps/search/57.72480,-4.89430/"
68,Beinn Mhanach,,Argyll,953,02A,02A: Loch Rannoch to Glen Lyon,3125,FALSE,56.534032,-4.646042,https://www.walkhighlands.co.uk/munros/beinn-mhanach,"Beinn Mhanach is an undistinguished Munro, a rounded lump when seen from any direction. It can be approached either up the attractive Auch Glen, or, less obviously, over the bealach Achaladair from Achaladair Farm.",https://d3teiib5p3f439.cloudfront.net/munros/beinn-mhanach-1.JPG,"https://www.google.com/maps/search/56.46070,-4.71466/"
69,Beinn Mheadhoin,,Cairngorms,1183,08A,08A: Cairngorms,3881,FALSE,57.095849,-3.611464,https://www.walkhighlands.co.uk/munros/beinn-mheadhoin,"Beinn Mheadhoin lies at the remote heart of the Cairngorms range, its summit plateau strewn with some spectacular granite tors. It can be approached either from the north across the magnificent Loch Avon basin - involving much reascent on the return - or via the longer approach from the south.",https://d3teiib5p3f439.cloudfront.net/munros/beinn-mheadhoin-1.JPG,"https://www.google.com/maps/search/57.13400,-3.67120/"
70,Beinn na Lap,,Fort William,935,04B,04B: Loch Treig to Loch Ericht,3068,FALSE,56.78939,-4.659977,https://www.walkhighlands.co.uk/munros/beinn-na-lap,Beinn na Lap is a rounded hill in the heart of the wild area to the northeast of Rannoch Moor. The West Highland railway passes close to its foot and the ascent from Corrour Station is short and straightforward.,https://d3teiib5p3f439.cloudfront.net/munros/beinn-na-lap-1.JPG,"https://www.google.com/maps/search/56.76040,-4.69070/"
71,Beinn nan Aighenan,,Fort William,959,03C,03C: Glen Etive to Glen Lochy,3146,FALSE,56.520349,-5.011178,https://www.walkhighlands.co.uk/munros/beinn-nan-aighenan,Beinn nan Aighenan is an isolated summit and quite a tricky Munro to reach. The options are a very long approach up Glen Kinglas or a climb over the intervening ridge from Glen Etive.,https://d3teiib5p3f439.cloudfront.net/munros/beinn-nan-aighenan-1.JPG,"https://www.google.com/maps/search/56.57650,-5.03520/"
72,Beinn Narnain,,Loch Lomond,927,01D,01D: Inveraray to Crianlarich,3041,FALSE,56.220956,-4.789003,https://www.walkhighlands.co.uk/munros/beinn-narnain,"One of the Arrochar Alps, Beinn Narnain's location means it is often one of the first Munros to be tackled. It is a very rocky little mountain with some scrambling and several false summits.",https://d3teiib5p3f439.cloudfront.net/munros/beinn-narnain-1.JPG,"https://www.google.com/maps/search/56.20600,-4.75070/"
73,Beinn Sgritheall,,Kintail,974,10A,10A: Glen Shiel to Loch Hourn and Loch Quoich,3196,FALSE,57.153815,-5.579727,https://www.walkhighlands.co.uk/munros/beinn-sgritheall,"Beinn Sgritheall has one of the finest situations of any of the Munros, towering above the tiny village of Arnisdale on Loch Huorn. Its ascent is unrelentingly steep but the views from the summit are amongst the finest in Scotland.",https://d3teiib5p3f439.cloudfront.net/munros/beinn-sgritheall-1.JPG,"https://www.google.com/maps/search/57.13440,-5.56790/"
74,Beinn Sgulaird,,Argyll,937,03B,03B: Loch Linnhe to Loch Etive,3074,FALSE,56.56624,-5.170399,https://www.walkhighlands.co.uk/munros/beinn-sgulaird,With its coastal position Beinn Sgulaird has a reputation as a magnificent viewpoint. It is well deserved but the steep slopes and undulating ridge makes for a much more arduous walk than its position close to the road would suggest.,https://d3teiib5p3f439.cloudfront.net/munros/beinn-sgulaird-1.JPG,"https://www.google.com/maps/search/56.55560,-5.24130/"
75,Beinn Heasgarnich,,Perthshire,1077,02B,02B: Glen Lyon to Glen Dochart & Loch Tay,3535,FALSE,56.510254,-4.579217,https://www.walkhighlands.co.uk/munros/beinn-heasgarnich,"Beinn Heasgarnich is a sprawling mountain. It can be approached by the high private road linking Glen Lochay and Glen Lyon, but it is protected by a moat of peat bogs.",https://d3teiib5p3f439.cloudfront.net/munros/beinn-heasgarnich-1.JPG,"https://www.google.com/maps/search/56.49910,-4.47590/"
76,Beinn Tarsuinn,,Ullapool,934,14A,14A: Loch Maree to Loch Broom,3064,FALSE,57.702051,-5.291634,https://www.walkhighlands.co.uk/munros/beinn-tarsuinn,"Beinn Tarsuinn is in the heart of the Fisherfield Forest, one of the wildest places in Scotland, and requires an epic walk to ascend, whether climbed with the rest of the Fisherfield Munros from Shenavall to the north, or from Kinlochewe to the south.",https://d3teiib5p3f439.cloudfront.net/munros/beinn-tarsuinn-1.JPG,"https://www.google.com/maps/search/57.77680,-5.25450/"
77,Beinn Teallach,,Fort William,915,09C,09C: Loch Lochy to Loch Laggan,3001,FALSE,56.935932,-4.694754,https://www.walkhighlands.co.uk/munros/beinn-teallach,Beinn Teallach was once the highest of the Corbetts before being promoted be one of the smallest Munros. It has steep ground on its eastern side but lacks any real distinction.,https://d3teiib5p3f439.cloudfront.net/munros/beinn-teallach-1.JPG,"https://www.google.com/maps/search/56.89510,-4.66560/"
78,Beinn Tulaichean,,Loch Lomond,946,01C,01C: Loch Lomond to Strathyre,3103,FALSE,56.342234,-4.563315,https://www.walkhighlands.co.uk/munros/beinn-tulaichean,"Beinn Tulaichean is really a minor summit on the south ridge of Cruach Àrdrain. It is best seen and most easily climbed from Inverlochlarig in the Braes of Balquhidder, though it is also possible to approach over Cruach Àrdrain from the A82.",https://d3teiib5p3f439.cloudfront.net/munros/beinn-tulaichean-1.JPG,"https://www.google.com/maps/search/56.33300,-4.51570/"
79,Beinn Udlamain,,Cairngorms,1010,05A,05A: Loch Ericht to Glen Tromie & Glen Garry,3314,FALSE,56.835444,-4.329976,https://www.walkhighlands.co.uk/munros/beinn-udlamain,Beinn Udlamain is the highest of the four mountains on the west side of the Drumochter Pass. It offers fine views of the Ben Alder range.,https://d3teiib5p3f439.cloudfront.net/munros/beinn-udlamain-1.JPG,"https://www.google.com/maps/search/56.85150,-4.24440/"
80,Ben Alder,,Cairngorms,1148,04B,04B: Loch Treig to Loch Ericht,3766,FALSE,56.813804,-4.46509,https://www.walkhighlands.co.uk/munros/ben-alder,"Ben Alder is one of the remotest of the Munros. A spacious plateau surrounded by cliffs and steep slopes, this is a mountain of memorable character and an almost palpable personality. The approach is enlivened by the dramatic Leachas ridges which offer some scrambling.",https://d3teiib5p3f439.cloudfront.net/munros/ben-alder-1.JPG,"https://www.google.com/maps/search/56.85350,-4.42380/"
81,Ben Avon,,Cairngorms,1172,08B,08B: Cairngorms,3845,FALSE,57.099347,-3.434438,https://www.walkhighlands.co.uk/munros/ben-avon,"Ben Avon is the easternmost of the high Cairngorms. This extraordinary mountain has a vast plateau stretching for miles and dotted with an amazing array of granite tors. One of these forms the summit, requiring a short scramble.",https://d3teiib5p3f439.cloudfront.net/munros/ben-avon-1.JPG,"https://www.google.com/maps/search/57.00570,-3.33810/"
82,Ben Chonzie,,Perthshire,930,01A,01A: Loch Tay to Perth,3052,FALSE,56.453851,-3.992057,https://www.walkhighlands.co.uk/munros/ben-chonzie,"Ben Chonzie is the highest point of the heathery moorlands to the north of Crieff. Its finest side is to the east above Glen Turret, but it is more frequently and quickly climbed using tracks from the west.",https://d3teiib5p3f439.cloudfront.net/munros/ben-chonzie-1.JPG,"https://www.google.com/maps/search/56.42090,-4.03940/"
83,Ben Cruachan,,Argyll,1127,03C,03C: Glen Etive to Glen Lochy,3698,FALSE,56.426841,-5.131802,https://www.walkhighlands.co.uk/munros/ben-cruachan,"Ben Cruachan is a very popular mountain, the highest summit of a grand range of sharp peaks between Loch Awe and Loch Etive, prominent in many distant views. Beneath the central corrie there is a huge underground hydro-electric power station.",https://d3teiib5p3f439.cloudfront.net/munros/ben-cruachan-1.JPG,"https://www.google.com/maps/search/56.39370,-5.11198/"
84,Ben Hope,,Sutherland,927,16B,16B: Durness to Loch Shin,3041,FALSE,58.413113,-4.60786,https://www.walkhighlands.co.uk/munros/ben-hope,"The most northerly of the Munros, Ben Hope is an isolated monolith with a short usual ascent that can be made quickly. The view is of a stunning desolation of lochans and moors. ",https://d3teiib5p3f439.cloudfront.net/munros/ben-hope-1.JPG,"https://www.google.com/maps/search/58.39040,-4.63280/"
85,Ben Klibreck,,Sutherland,962,16D,16D: Altnaharra to Dornoch,3156,FALSE,58.235202,-4.41113,https://www.walkhighlands.co.uk/munros/ben-klibreck,Ben Klibreck is a giant whale of a Munro isolated in the wilds of East Sutherland. The usual ascent route climbs very steeply to reach the bealach to the south of the hill; the reward is a stunning panorama of Scotland's northern wildernesses.,https://d3teiib5p3f439.cloudfront.net/munros/ben-klibreck-1.JPG,"https://www.google.com/maps/search/58.20850,-4.49930/"
86,Ben Lawers,,Perthshire,1214,02B,02B: Glen Lyon to Glen Dochart & Loch Tay,3983,FALSE,56.544921,-4.220876,https://www.walkhighlands.co.uk/munros/ben-lawers,"Ben Lawers is the highest mountain in the Southern Highlands and one of Scotland's most popular peaks. Rising high above Loch Tay, it is also renowned for its arctic-alpine flora, and is a National Nature Reserve. The mountain is owned by the National Trust for Scotland.",https://d3teiib5p3f439.cloudfront.net/munros/ben-lawers-1.JPG,"https://www.google.com/maps/search/56.51100,-4.26287/"
87,Ben Lomond,,Loch Lomond,974,01C,01C: Loch Lomond to Strathyre,3195,FALSE,56.190302,-4.63301,https://www.walkhighlands.co.uk/munros/ben-lomond,"Ben Lomond is one of the most familiar and popular of the Munros, its fine summit being in clear view from the south end of the Loch at Balloch. Whilst the path is wide and busy up the slopes, the summit is dramatically situated above a steep corrie and the views over the Loch are unsurpassed.",https://d3teiib5p3f439.cloudfront.net/munros/ben-lomond-1.JPG,"https://www.google.com/maps/search/56.15250,-4.64310/"
88,Ben Lui,,Argyll,1131,01D,01D: Inveraray to Crianlarich,3712,FALSE,56.397004,-4.810509,https://www.walkhighlands.co.uk/munros/ben-lui,"Ben Lui is a graceful peak, considered by many people to be the finest mountain in the Southern Highlands. It offers its best side towards Dalrigh, and approaches from this side can involve a scramble round either rim of its northeastern corrie, but it is more usually climbed from Glen Lochay, a much shorter route.",https://d3teiib5p3f439.cloudfront.net/munros/ben-lui-1.JPG,"https://www.google.com/maps/search/56.40990,-4.85552/"
89,Ben Macdui,,Cairngorms,1309,08A,08A: Cairngorms,4295,FALSE,57.070368,-3.669099,https://www.walkhighlands.co.uk/munros/ben-macdui,"The second highest mountain in Britain, Ben Macdui is in the centre of the arctic-like Cairngorms plateau - a much wilder place than Ben Nevis. Climbed equally frequently from both Deeside and Speyside, the summit is said to be haunted by the wraith-like Old Grey Man.",https://d3teiib5p3f439.cloudfront.net/munros/ben-macdui-1.JPG,"https://www.google.com/maps/search/57.13400,-3.67120/"
90,Ben More,,Loch Lomond,1174,01C,01C: Loch Lomond to Strathyre,3852,FALSE,56.385952,-4.540087,https://www.walkhighlands.co.uk/munros/ben-more,"Ben More is instantly recognisable, a towering pyramid from near Crianlarich and joined by its near neighbour Stob Binnein in more distant views. Its slopes above Benmore Farm are relentlessly steep.",https://d3teiib5p3f439.cloudfront.net/munros/ben-more-1.JPG,"https://www.google.com/maps/search/56.40280,-4.56120/"
91,Ben More,Mull,Mull,966,17E,17E: Mull and Nearby Islands,3169,FALSE,56.424829,-6.013999,https://www.walkhighlands.co.uk/munros/ben-more-mull,"Ben More is the only island Munro outside Skye. It is a grand, rocky mountain and a fantastic viewpoint for scores of islands dotted around the Minches.",https://d3teiib5p3f439.cloudfront.net/munros/ben-more-mull-1.JPG,"https://www.google.com/maps/search/56.44920,-6.06790/"
92,Ben More Assynt,,Ullapool,998,16E,16E: Scourie to Lairg,3274,FALSE,58.138164,-4.858208,https://www.walkhighlands.co.uk/munros/ben-more-assynt,"Ben More Assynt is the highest mountain in the extraordinary landscape of Assynt. It is hidden from the roads, however, by the neighbouring summit of Conival. Ben More has huge, scree girt flanks, a fine approach ridge and a view of total desolation.",https://d3teiib5p3f439.cloudfront.net/munros/ben-more-assynt-1.JPG,"https://www.google.com/maps/search/58.14870,-4.97340/"
93,Ben Nevis,,Fort William,1345,04A,04A: Fort William to Loch Treig & Loch Leven,4411,FALSE,56.796891,-5.003675,https://www.walkhighlands.co.uk/munros/ben-nevis,"The highest mountain in Britain, Ben Nevis certainly attracts the crowds, with hordes of trippers toiling up the long and punishing stony ascent to the summit in the summer months. The North Face, on the other hand, presents a very different prospect, its towering precipices and narrow gullies making up one of the most celebrated rock and ice climbing arenas in the country.",https://d3teiib5p3f439.cloudfront.net/munros/ben-nevis-1.JPG,"https://www.google.com/maps/search/56.81080,-5.07710/"
94,Ben Oss,,Argyll,1030,01D,01D: Inveraray to Crianlarich,3379,FALSE,56.389027,-4.775179,https://www.walkhighlands.co.uk/munros/ben-oss,"Ben Oss is a rugged mountain, usually climbed from Dalrigh near Tyndrum. It suffers from the proximity of its near and much grander neighbour, Ben Lui.",https://d3teiib5p3f439.cloudfront.net/munros/ben-oss-1.JPG,"https://www.google.com/maps/search/56.42500,-4.68680/"
95,Ben Starav,,Fort William,1080,03C,03C: Glen Etive to Glen Lochy,3542,FALSE,56.538922,-5.049748,https://www.walkhighlands.co.uk/munros/ben-starav,Ben Starav is an imposing mountain which rears up steeply from the head of Loch Etive. Higher up it has some fine ridges and is a great viewpoint.,https://d3teiib5p3f439.cloudfront.net/munros/ben-starav-1.JPG,"https://www.google.com/maps/search/56.57620,-5.03566/"
96,Ben Vane,,Loch Lomond,916,01D,01D: Inveraray to Crianlarich,3004,FALSE,56.249786,-4.781655,https://www.walkhighlands.co.uk/munros/ben-vane,"One of the Arrochar Alps, Ben Vane only just makes Munro status but has great character, with very steep and rocky slopes on all sides. Bealachs with other peaks are very low and Ben Vane is usually climbed on its own.",https://d3teiib5p3f439.cloudfront.net/munros/ben-vane-1.JPG,"https://www.google.com/maps/search/56.25160,-4.70884/"
97,Ben Vorlich,Loch Earn,Perthshire,985,01B,01B: Strathyre to Strathallan,3233,FALSE,56.34268,-4.219464,https://www.walkhighlands.co.uk/munros/ben-vorlich-loch-earn,"Ben Vorlich above Loch Earn is one of the best-known Scottish mountains and is very popular. Close to the Highland boundary, it gives excellent views into the Lowlands.",https://d3teiib5p3f439.cloudfront.net/munros/ben-vorlich-loch-earn-1.JPG,"https://www.google.com/maps/search/56.38130,-4.21580/"
98,Ben Vorlich,Loch Lomond,Loch Lomond,943,01D,01D: Inveraray to Crianlarich,3093,FALSE,56.274021,-4.755046,https://www.walkhighlands.co.uk/munros/ben-vorlich-loch-lomond,"Ben Vorlich towers above the west side of the head of Loch Lomond; although close to the road its steep sides mean it is still a tough ascent. The Inveruglas hydro-electric power station is on its eastern flanks, with pipelines running through the mountain from Loch Sloy. It is usually climbed by a steep ascent on the Loch Sloy side though a more interesting circuit can be had from Ardlui.",https://d3teiib5p3f439.cloudfront.net/munros/ben-vorlich-loch-lomond-1.JPG,"https://www.google.com/maps/search/56.25160,-4.70884/"
99,Ben Wyvis,,Loch Ness,1046,15B,15B: Loch Vaich to Moray Firth,3432,FALSE,57.678914,-4.57925,https://www.walkhighlands.co.uk/munros/ben-wyvis,"Ben Wyvis is an isolated, huge and bulky Munro, rising like an elephant from the lower moors of Easter Ross. Prominent in many views, Ben Wyvis is a well-known and popular ascent.",https://d3teiib5p3f439.cloudfront.net/munros/ben-wyvis-1.JPG,"https://www.google.com/maps/search/57.66580,-4.66680/"
100,Bidean nam Bian,,Fort William,1149,03B,03B: Loch Linnhe to Loch Etive,3771,FALSE,56.642759,-5.029335,https://www.walkhighlands.co.uk/munros/bidean-nam-bian,"Bidean nam Bian is more a mountain range than a single mountain, a huge and complex mass of dramatic crags, ridges and summits towering on the south side of Glen Coe. The main summit is hidden from the road behind the Three Sisters - three great prows - and the top of Stob Coire nan Lochain.",https://d3teiib5p3f439.cloudfront.net/munros/bidean-nam-bian-1.JPG,"https://www.google.com/maps/search/56.66770,-4.98650/"
101,Bidein a' Choire Sheasgaich,,Torridon,945,12A,12A: Kyle of Lochalsh to Garve,3100,FALSE,57.41971,-5.250472,https://www.walkhighlands.co.uk/munros/bidein-a-choire-sheasgaich,"One of the remotest Munros, Bidein a' Choire Sheasgaich is a magnificent peak hidden away in the wilderness above Loch Monar. Reaching its foot from any direction is arduous, with much ascent and descent.",https://d3teiib5p3f439.cloudfront.net/munros/bidein-a-choire-sheasgaich-1.JPG,"https://www.google.com/maps/search/57.39150,-5.45534/"
102,Binnein Beag,,Fort William,943,04A,04A: Fort William to Loch Treig & Loch Leven,3094,FALSE,56.766961,-4.911161,https://www.walkhighlands.co.uk/munros/binnein-beag,"Binnein Beag is an outlier of the Mamores and the most remote peak in the range. Although close by its much higher neighbour Binnein Mòr, Binnein Beag is a steep-sided cone and admits of no inferioty to its higher siblings.",https://d3teiib5p3f439.cloudfront.net/munros/binnein-beag-1.JPG,"https://www.google.com/maps/search/56.71680,-4.96280/"
103,Binnein Mor,,Islands,1130,04A,04A: Fort William to Loch Treig & Loch Leven,3707,FALSE,56.754376,-4.925796,https://www.walkhighlands.co.uk/munros/binnein-mor,"Binnein Mòr is the highest summit of the magnificent Mamores range, one of the best mountain ranges in Scotland for keen hillwalkers. It is also a fine and graceful mountain in its own right. The views are tremendous, especially across to Ben Nevis and down onto its lower neighbours.",https://d3teiib5p3f439.cloudfront.net/munros/binnein-mor2.jpg,"https://www.google.com/maps/search/56.71690,-4.96308/"
104,Blà Bheinn,,Islands,929,17B,17B: Minginish and the Cuillin Hills,3047,FALSE,57.219565,-6.09321,https://www.walkhighlands.co.uk/munros/bla-bheinn,"Blà Bheinn - sometimes anglicised to Blaven - stands apart from the rest of the Cuillin Ridge on Skye. Towering magnificently above Loch Slapin and with its hidden side even more spectacular, it is one of the finest mountains in Britain as well as one of the best viewpoints imaginable.",https://d3teiib5p3f439.cloudfront.net/munros/bla-bheinn-1.JPG,"https://www.google.com/maps/search/57.22030,-6.04290/"
105,Braeriach,,Cairngorms,1296,08A,08A: Cairngorms,4252,FALSE,57.078307,-3.72839,https://www.walkhighlands.co.uk/munros/braeriach,"The third highest mountain in Britain, Braeriach is perhaps the finest of the Cairngorms. Reaching its vast summit plateau requires a long approach walk - this remains a truly wild place - whilst all around the plateau are a vast range of dramatic and beautiful corries.",https://d3teiib5p3f439.cloudfront.net/munros/braeriach-1.JPG,"https://www.google.com/maps/search/57.15610,-3.79430/"
106,Broad Cairn,,Cairngorms,998,07A,07A: Braemar to Montrose,3274,FALSE,56.919148,-3.249082,https://www.walkhighlands.co.uk/munros/broad-cairn,"Broad Cairn is part of the vast, rolling Mounth plateau. Most conveniently climbed from Loch Muick, it is best seen from that direction.",https://d3teiib5p3f439.cloudfront.net/munros/broad-cairn-1.JPG,"https://www.google.com/maps/search/56.95230,-3.13620/"
107,Bruach na Frithe,,Islands,959,17B,17B: Minginish and the Cuillin Hills,3146,FALSE,57.246761,-6.210795,https://www.walkhighlands.co.uk/munros/bruach-na-frithe,"Bruach na Frithe is one of the most straightforward of the Cuillin Munros, and often the first to be climbed. It is hidden from Sligachan by Sgùrr a Bhasteir but has a pointed summit though with fewer spectacular crags than its neighbours. It is a superb viewpoint for the main Ridge.",https://d3teiib5p3f439.cloudfront.net/munros/bruach-na-frithe2.jpg,"https://www.google.com/maps/search/57.28880,-6.18420/"
108,Stob Coire Raineach,Buachaille Etive Beag,Fort William,925,03B,03B: Loch Linnhe to Loch Etive,3033,FALSE,56.649895,-4.951601,https://www.walkhighlands.co.uk/munros/stob-coire-raineach-buachaille-etive-beag,Stob Coire Raineach - the northern summit of Buachaille Etive Beag - became a Munro in its own right in 1997. Its broad summit has great views of the Aonach Eagach.,https://d3teiib5p3f439.cloudfront.net/munros/stob-coire-raineach-buachaille-etive-beag-1.JPG,"https://www.google.com/maps/search/56.66270,-4.95820/"
109,Stob Dubh,Buachaille Etive Beag,Fort William,958,03B,03B: Loch Linnhe to Loch Etive,3143,FALSE,56.638159,-4.970747,https://www.walkhighlands.co.uk/munros/stob-dubh-buachaille-etive-beag,"The higher of the two Munros on Buachaille Etive Beag, Stob Dubh is a fine summit on a grand section of ridge, overlooking Loch Etive.",https://d3teiib5p3f439.cloudfront.net/munros/stob-dubh-buachaille-etive-beag-1.JPG,"https://www.google.com/maps/search/56.66270,-4.95820/"
110,Stob Dearg,Buachaille Etive Mor,Fort William,1021,03B,03B: Loch Linnhe to Loch Etive,3351,FALSE,56.646228,-4.900377,https://www.walkhighlands.co.uk/munros/stob-dearg-buachaille-etive-mor,"Stob Dearg is the highest and finest peak of Buachaille Etive Mòr, and one of the most famous sights of the Highlands. The mountain presents a remarkable pyramid of rock to travellers along the A82 across Rannoch Moor.",https://d3teiib5p3f439.cloudfront.net/munros/stob-dearg-buachaille-etive-mor-1.JPG,"https://www.google.com/maps/search/56.66440,-4.90450/"
111,Stob na Broige,Buachaille Etive Mor,Fort William,953,03B,03B: Loch Linnhe to Loch Etive,3128,FALSE,56.629879,-4.951162,https://www.walkhighlands.co.uk/munros/stob-na-broige-buachaille-etive-mor,Stob na Bròige is the summit at the Glen Etive end of Buachaille Etive Mòr. It was promoted to become a separate Munro in 1997 when means that most baggers now traverse the whole ridge.,https://d3teiib5p3f439.cloudfront.net/munros/stob-na-broige-buachaille-etive-mor-1.JPG,"https://www.google.com/maps/search/56.66440,-4.90450/"
112,Bynack More,,Cairngorms,1090,08A,08A: Cairngorms,3576,FALSE,57.13822,-3.584716,https://www.walkhighlands.co.uk/munros/bynack-more,"Bynack More is the cornerstone of the High Cairngorms to the northeast, its pyramidal summit appearing to be the greatest mountain in the range when seen from much of Moray. From the summit the views are correspondingly extensive. Interest is added by the great tors of the Barns of Bynack down the east side of the ridge.",https://d3teiib5p3f439.cloudfront.net/munros/bynack-more-1.JPG,"https://www.google.com/maps/search/57.15910,-3.68160/"
113,Cairn Bannoch,,Cairngorms,1012,07A,07A: Braemar to Montrose,3320,FALSE,56.927728,-3.278403,https://www.walkhighlands.co.uk/munros/cairn-bannoch,Cairn Bannoch is a fairly insignificant summit on the Mounth plateau to the south of Lochnagar. The most significant feature nearby is the great cliff of Creag an Dubh Loch to the northeast (but out of sight).,https://d3teiib5p3f439.cloudfront.net/munros/cairn-bannoch-1.JPG,"https://www.google.com/maps/search/56.95250,-3.13640/"
114,Cairn Gorm,,Cairngorms,1245,08A,08A: Cairngorms,4084,FALSE,57.116714,-3.644477,https://www.walkhighlands.co.uk/munros/cairn-gorm,"Cairn Gorm is one of the best known summits in Scotland, and despite not being the highest has lent its name to this whole mountain range. It has heavily developed for ski-ing and by the funicular railway to the Ptarmigan restaurant, detracting greatly from its wildness and the experience of climbing it on foot.",https://d3teiib5p3f439.cloudfront.net/munros/cairn-gorm-1.JPG,"https://www.google.com/maps/search/57.13400,-3.67120/"
115,Cairn of Claise,,Cairngorms,1063,07A,07A: Braemar to Montrose,3488,FALSE,56.894179,-3.338638,https://www.walkhighlands.co.uk/munros/cairn-of-claise,Cairn of Claise is a fairly insignificant rise on the wide plateau on the east side of the Cairnwell Pass. A large stone wall crosses close by the summit marking the old county boundary.,https://d3teiib5p3f439.cloudfront.net/munros/cairn-of-claise-1.JPG,"https://www.google.com/maps/search/56.90330,-3.40080/"
116,Cairn Toul,,Cairngorms,1291,08A,08A: Cairngorms,4236,FALSE,57.054406,-3.710757,https://www.walkhighlands.co.uk/munros/cairn-toul,"Cairn Toul is the most shapely of the high Cairngorms, rising as a giant sentinel above the infant River Dee. It is in a very wild and remote position and many walkers will need an overnight trip to climb it, whether from Deeside or Speyside.",https://d3teiib5p3f439.cloudfront.net/munros/cairn-toul-1.JPG,"https://www.google.com/maps/search/57.14620,-3.67930/"
117,Carn a' Chlamain,,Perthshire,964,06A,06A: Glen Tromie to Glen Tilt,3161,FALSE,56.860965,-3.779634,https://www.walkhighlands.co.uk/munros/carn-a-chlamain,"Càrn a' Chlamain is a stony summit on the edge of a sweeping plateau on the edge of Glen Tilt. The usual approach is up this glen, its great beauty making this a fine walk.",https://d3teiib5p3f439.cloudfront.net/munros/carn-a-chlamain-1.JPG,"https://www.google.com/maps/search/56.77450,-3.84325/"
118,Carn a' Choire Bhoidheach,,Cairngorms,1110,07A,07A: Braemar to Montrose,3641,FALSE,56.945773,-3.272707,https://www.walkhighlands.co.uk/munros/carn-a-choire-bhoidheach,"Càrn a' Choire Bhòidheach is in the centre of the extensive White Mounth plateau. The true summit is a featureless swelling but a short distance further north is the more dramatic Stuic, a minor summit on the edge of two dramatic corries.",https://d3teiib5p3f439.cloudfront.net/munros/carn-a-choire-bhoidheach-1.JPG,"https://www.google.com/maps/search/56.95250,-3.13640/"
119,Carn a' Gheoidh,,Cairngorms,976,06B,06B: Pitlochry to Braemar & Blairgowrie,3202,FALSE,56.873065,-3.466616,https://www.walkhighlands.co.uk/munros/carn-a-gheoidh,Càrn a' Ghèoidh is hidden behind the two more familiar Cairnwell munros. It offers a wild and quiet respite to the ski-developments on its two neighbours.,https://d3teiib5p3f439.cloudfront.net/munros/carn-a-gheoidh-1.JPG,"https://www.google.com/maps/search/56.88680,-3.41490/"
120,Carn a' Mhaim,,Cairngorms,1037,08A,08A: Cairngorms,3402,FALSE,57.036871,-3.658384,https://www.walkhighlands.co.uk/munros/carn-a-mhaim,Càrn a' Mhàim guards Lairig Ghru on the approach from Braemar. It is joined to mighty Ben Macdui by perhaps the narrowest section of ridge in the Cairngorms - an enjoyable traverse with a steep ascent to gain Macdui at the end.,https://d3teiib5p3f439.cloudfront.net/munros/carn-a-mhaim-1.JPG,"https://www.google.com/maps/search/56.99000,-3.54430/"
121,Carn an Fhidhleir,Carn Ealar,Cairngorms,994,06A,06A: Glen Tromie to Glen Tilt,3261,FALSE,56.936029,-3.801535,https://www.walkhighlands.co.uk/munros/carn-an-fhidhleir-carn-ealar,"Càrn an Fhìdhleir is a domed and unspectacular Munro. However it is in the heart of a vast roadless area, requiring an epic approach from either Glen Feshie, Glen Tilt or, more usually, the Linn of Dee - this latter approach is made easier with a mountain bike.",https://d3teiib5p3f439.cloudfront.net/munros/carn-an-fhidhleir-carn-ealar-1.JPG,"https://www.google.com/maps/search/56.98940,-3.54350/"
122,Carn an Righ,,Perthshire,1029,06B,06B: Pitlochry to Braemar & Blairgowrie,3376,FALSE,56.876583,-3.595273,https://www.walkhighlands.co.uk/munros/carn-an-righ,Càrn an Rìgh is a steep-sided mountain in the heart of the Mounth. It is usually climbed via the Spittal of Glenshee to the southeast.,https://d3teiib5p3f439.cloudfront.net/munros/carn-an-righ-1.JPG,"https://www.google.com/maps/search/56.81410,-3.46720/"
123,Carn an t-Sagairt Mor,,Cairngorms,1047,07A,07A: Braemar to Montrose,3435,FALSE,56.942973,-3.303227,https://www.walkhighlands.co.uk/munros/carn-an-t-sagairt-mor,Càrn an t-Sagairt Mòr is on the Mounth plateau to the west of Lochnagar; its southern slopes crossed by an old path to the latter summit from Glen Callater. It is a dome-shaped hill with aircraft wreckage to the north of the summit its best known feature.,https://d3teiib5p3f439.cloudfront.net/munros/carn-an-t-sagairt-mor-1.JPG,"https://www.google.com/maps/search/56.95250,-3.13640/"
124,Carn an Tuirc,,Cairngorms,1019,07A,07A: Braemar to Montrose,3343,FALSE,56.908265,-3.357125,https://www.walkhighlands.co.uk/munros/carn-an-tuirc,"Càrn an Tuirc is a stony dome, one of four Munros above the east side of the Cairnwell Pass. The summits in this region are arranged on a wide plateau making it possible to devise numerous expeditions taking in multiple peaks.",https://d3teiib5p3f439.cloudfront.net/munros/carn-an-tuirc-1.JPG,"https://www.google.com/maps/search/56.90330,-3.40080/"
125,Carn Aosda,,Cairngorms,915,06B,06B: Pitlochry to Braemar & Blairgowrie,3003,FALSE,56.895696,-3.423274,https://www.walkhighlands.co.uk/munros/carn-aosda,"Càrn Aosda is one of the easiest and quickest Munros to climb, but that is its only distinction. The mountain has been heavily developed for ski-ing and pistes, tows and access tracks disfigure its slopes above the Cairnwell pass.",https://d3teiib5p3f439.cloudfront.net/munros/carn-aosda-1.JPG,"https://www.google.com/maps/search/56.88680,-3.41490/"
126,Carn Bhac,,Cairngorms,945,06B,06B: Pitlochry to Braemar & Blairgowrie,3101,FALSE,56.930558,-3.560897,https://www.walkhighlands.co.uk/munros/carn-bhac,"Càrn Bhac is a rounded mountain deep in the wilds of the Mounth south of Inverey. One of the less visited Munros it offers a chance for peace, quiet and contemplation.",https://d3teiib5p3f439.cloudfront.net/munros/carn-bhac-1.JPG,"https://www.google.com/maps/search/56.98510,-3.50030/"
127,Carn Dearg,Loch Pattack,Cairngorms,1034,04B,04B: Loch Treig to Loch Ericht,3392,FALSE,56.855242,-4.454693,https://www.walkhighlands.co.uk/munros/carn-dearg-loch-pattack,Càrn Dearg is a wedge-shaped and rather sprawling mountain situated above Culra Bothy in the heart of the Ben Alder forest.,https://d3teiib5p3f439.cloudfront.net/munros/carn-dearg-loch-pattack-1.JPG,"https://www.google.com/maps/search/56.85350,-4.42380/"
128,Carn Dearg,Corrour,Fort William,941,04B,04B: Loch Treig to Loch Ericht,3087,FALSE,56.759931,-4.589888,https://www.walkhighlands.co.uk/munros/carn-dearg-corrour,"Càrn Dearg is a remote peak between Rannoch Moor and the Ben Alder range, above Loch Ossian. It can be climbed either from either Corrour or Rannoch stations on the West Highland line.",https://d3teiib5p3f439.cloudfront.net/munros/carn-dearg-corrour-1.JPG,"https://www.google.com/maps/search/56.76040,-4.69070/"
129,Carn Dearg,Monadhliath,Cairngorms,946,09B,09B: Glen Albyn and the Monadh Liath,3103,FALSE,57.092261,-4.253246,https://www.walkhighlands.co.uk/munros/carn-dearg-monadhliath,"Càrn Dearg is the highest of the Monadhliath, situated on a fairly slender ridge leading south from the main plateau and quite uncharacteristic of the range. It is usually combined with its neighbours further east.",https://d3teiib5p3f439.cloudfront.net/munros/carn-dearg-monadhliath-1.JPG,"https://www.google.com/maps/search/57.07050,-4.15760/"
130,Carn Eige,,Loch Ness,1183,11A,11A: Loch Duich to Cannich,3881,FALSE,57.287701,-5.115159,https://www.walkhighlands.co.uk/munros/carn-eige,"Càrn Eige is the highest of all the mountains north of the Great Glen, and forms the culminating point of the great range of peaks on the north side of beautiful Glen Affric. It is almost always climbed together with its twin and near neighbour, Mam Sodhail.",https://d3teiib5p3f439.cloudfront.net/munros/carn-eige-1.JPG,"https://www.google.com/maps/search/57.27340,-4.96180/"
131,Carn Ghluasaid,,Kintail,956,11B,11B: Glen Affric to Glen Moriston,3137,FALSE,57.165959,-5.068159,https://www.walkhighlands.co.uk/munros/carn-ghluasaid,Càrn Ghluasaid is reached by a fine stalkers path from the north side of Loch Cluanie. The other side of the mountain collapses in broken crags down to Coire Sgreumh. The mountain is really quite a minor subsidiary summit of Sgùrr nan Conbhairean - wth less than 60m of ascent if coming up from the direction of its parent peak.,https://d3teiib5p3f439.cloudfront.net/munros/carn-ghluasaid-1.JPG,"https://www.google.com/maps/search/57.14610,-5.06820/"
132,Carn Gorm,,Perthshire,1030,02A,02A: Loch Rannoch to Glen Lyon,3378,FALSE,56.622537,-4.226021,https://www.walkhighlands.co.uk/munros/carn-gorm,Càrn Gorm is one of a group of four Munros on the north side of Glen Lyon that are usually climbed together. Its summit is a broad dome with little distinction but there are good views of the glen.,https://d3teiib5p3f439.cloudfront.net/munros/carn-gorm-1.JPG,"https://www.google.com/maps/search/56.60290,-4.19200/"
133,Carn Liath,Creag Meagaidh,Fort William,1006,09C,09C: Loch Lochy to Loch Laggan,3301,FALSE,56.978793,-4.515289,https://www.walkhighlands.co.uk/munros/carn-liath-creag-meagaidh,Càrn Liath is an eastern outlier of the Creag Meagaidh range and is a rather sprawling and undistinguished hill.,https://d3teiib5p3f439.cloudfront.net/munros/carn-liath-creag-meagaidh-1.JPG,"https://www.google.com/maps/search/56.95210,-4.49592/"
134,Carn Mairg,,Perthshire,1043,02A,02A: Loch Rannoch to Glen Lyon,3422,FALSE,56.634635,-4.145624,https://www.walkhighlands.co.uk/munros/carn-mairg,Càrn Mairg is the highest of a range of four Munros on the north side of Glen Lyon above Invervar. Alone amongst the four its summit has small crags and a distinctive form.,https://d3teiib5p3f439.cloudfront.net/munros/carn-mairg-1.JPG,"https://www.google.com/maps/search/56.60290,-4.19200/"
135,Carn Mor Dearg,,Fort William,1220,04A,04A: Fort William to Loch Treig & Loch Leven,4003,FALSE,56.805246,-4.986616,https://www.walkhighlands.co.uk/munros/carn-mor-dearg,"Càrn Mòr Dearg may be one of the highest mountains in Britain, but it is completely overshadowed by Ben Nevis. It is the perfect viewpoint from which to admire the Ben's magnificent North Face. Its graceful peak crowns a fine ridge - joined to its great neighbour by the celebrated Càrn Mòr Dearg Arête.",https://d3teiib5p3f439.cloudfront.net/munros/carn-mor-dearg-1.JPG,"https://www.google.com/maps/search/56.84190,-5.04320/"
136,Carn na Caim,,Cairngorms,941,05B,05B: Loch Ericht to Glen Tromie & Glen Garry,3087,FALSE,56.911722,-4.174444,https://www.walkhighlands.co.uk/munros/carn-na-caim,Càrn na Caim is the more northerly of the two Munros on the wide plateau guarding the east side of the Drumochter Pass. The approach to the summit is boggy but the views are better than might be imagined.,https://d3teiib5p3f439.cloudfront.net/munros/carn-na-caim2.jpg,"https://www.google.com/maps/search/56.90890,-4.23660/"
137,Carn nan Gobhar,Strathfarrar,Loch Ness,992,12A,12A: Kyle of Lochalsh to Garve,3255,FALSE,57.452331,-4.879935,https://www.walkhighlands.co.uk/munros/carn-nan-gobhar-strathfarrar,Càrn nan Gobhar is a rounded hill on the north Strathfarrar ridge. The generally easy slopes are topped with a summit area covered in awkward angular boulders. There are good views over the Beauly and Cromarty Firths.,https://d3teiib5p3f439.cloudfront.net/munros/carn-nan-gobhar-strathfarrar-1.JPG,"https://www.google.com/maps/search/57.40560,-4.85910/"
138,Carn nan Gobhar,Loch Mullardoch,Loch Ness,992,12B,12B: Killilan to Inverness,3256,FALSE,57.363304,-5.024544,https://www.walkhighlands.co.uk/munros/carn-nan-gobhar-loch-mullardoch,"One of two Munros of the same name in close proximity, this Càrn nan Gobhar rises between Loch Mullardoch and Glen Strathfarrar. It is a fairly rounded peak and rather overshadowed by its more dramatic neighbour Sgùrr na Lapaich.",https://d3teiib5p3f439.cloudfront.net/munros/carn-nan-gobhar-loch-mullardoch-1.JPG,"https://www.google.com/maps/search/57.33990,-4.96150/"
139,Carn Sgulain,,Cairngorms,920,09B,09B: Glen Albyn and the Monadh Liath,3019,FALSE,57.124371,-4.176986,https://www.walkhighlands.co.uk/munros/carn-sgulain,"Càrn Sgulain is one of the least interesting Munros, a featureless pudding in the Monadhliath and much inferior to neighbouring A' Chailleach. The intervening ground is riven by a steep little grassy gully so even the short walk across to Càrn Sgulain is a little irritating!",https://d3teiib5p3f439.cloudfront.net/munros/carn-sgulain-1.JPG,"https://www.google.com/maps/search/57.07050,-4.15760/"
140,Chno Dearg,,Fort William,1046,04B,04B: Loch Treig to Loch Ericht,3432,FALSE,56.830077,-4.66083,https://www.walkhighlands.co.uk/munros/chno-dearg,"Chno Dearg is one of the less distinguished mountains on the south side of Glen Spean, its rounded dome lacking any distinctive features.",https://d3teiib5p3f439.cloudfront.net/munros/chno-dearg-1.JPG,"https://www.google.com/maps/search/56.86550,-4.70850/"
141,Ciste Dhubh,,Kintail,981,11A,11A: Loch Duich to Cannich,3219,FALSE,57.199234,-5.209032,https://www.walkhighlands.co.uk/munros/ciste-dhubh,Ciste Dhubh is a dramatically pointed summit set some way back from Cluanie and Glen Shiel. It is a fine and very distinctive peak of great character.,https://d3teiib5p3f439.cloudfront.net/munros/ciste-dhubh-1.JPG,"https://www.google.com/maps/search/57.15960,-5.16470/"
142,Cona' Mheall,,Ullapool,978,15A,15A: Loch Broom to Strath Oykel,3209,FALSE,57.791077,-4.903418,https://www.walkhighlands.co.uk/munros/cona-mheall,Cona' Mheall is a fine stony ridge to the east of the main bulk of the Beinn Dearg range. It offers tremendous views across the wild and rocky Coire Ghrunnda.,https://d3teiib5p3f439.cloudfront.net/munros/cona-mheall-1.JPG,"https://www.google.com/maps/search/57.81980,-5.06250/"
143,Conival,,Ullapool,987,16E,16E: Scourie to Lairg,3238,FALSE,58.135689,-4.883497,https://www.walkhighlands.co.uk/munros/conival,"Conival is in view from Inchnadamph but is rather retiring compared to the lower peaks such as Quinag. Composed of Lewissian Gneiss - one of the oldest rocks on the planet - the mountain gives a steep ascent with tricky terrain. The view is of an otherworldly wilderness of lochs and moors, whilst a fine ridge connects with the neighbouring and higher Ben More Assynt.",https://d3teiib5p3f439.cloudfront.net/munros/conival-1.JPG,"https://www.google.com/maps/search/58.14870,-4.97340/"
144,Creag a'Mhaim,,Kintail,946,10A,10A: Glen Shiel to Loch Hourn and Loch Quoich,3104,FALSE,57.120971,-5.160048,https://www.walkhighlands.co.uk/munros/creag-a-mhaim,"Creag a'Mhàim is the easternmost of the seven Munros on the South Cluanie ridge, and usually the first to be climbed. It suffers by comparison to its neighbours further along the ridge.",https://d3teiib5p3f439.cloudfront.net/munros/creag-a-mhaim-1.JPG,"https://www.google.com/maps/search/57.15600,-5.17815/"
145,Creag Leacach,,Cairngorms,988,07A,07A: Braemar to Montrose,3242,FALSE,56.85464,-3.387768,https://www.walkhighlands.co.uk/munros/creag-leacach,"Creag Leacach is a stony mountain rising prominently above the Devil's Elbow on the road up the Cairnwell Pass. It is normally ascended as part of the round of the four Munros on the east side of the pass; we also give a more attractive alternative route, starting in Glen Isla.",https://d3teiib5p3f439.cloudfront.net/munros/creag-leacach-1.JPG,"https://www.google.com/maps/search/56.90330,-3.40080/"
146,Creag Meagaidh,,Fort William,1128,09C,09C: Loch Lochy to Loch Laggan,3701,FALSE,56.952023,-4.602117,https://www.walkhighlands.co.uk/munros/creag-meagaidh,"Creag Meagaidh is a vast plateau, and one of the higher mountains of the central Highlands - often recognisable from afar due to the distinctive cleft of the Window. The mountain is chiefly famed for the magnificent Coire Àrdair,  second only to Ben Nevis as mecca for ice-climbers.",https://d3teiib5p3f439.cloudfront.net/munros/creag-meagaidh-1.JPG,"https://www.google.com/maps/search/56.95210,-4.49592/"
147,Creag Mhor,Glen Lochay,Perthshire,1047,02B,02B: Glen Lyon to Glen Dochart & Loch Tay,3434,FALSE,56.489519,-4.614038,https://www.walkhighlands.co.uk/munros/creag-mhor-glen-lochay,Creag Mhòr is at the head of Glen Lochay and forms a very steep-sided ridge. Access is eased by the hydro track running across the side of the glen. ,https://d3teiib5p3f439.cloudfront.net/munros/creag-mhor-glen-lochay-1.JPG,"https://www.google.com/maps/search/56.49910,-4.47590/"
148,Creag nan Damh,,Kintail,917,10A,10A: Glen Shiel to Loch Hourn and Loch Quoich,3009,FALSE,57.147262,-5.33496,https://www.walkhighlands.co.uk/munros/creag-nan-damh,Creag nan Dàmh is the final peak on the South Glen Shiel Ridge. It only just qualifies as a Munro and appears insignificant compared to some of its neighbours.,https://d3teiib5p3f439.cloudfront.net/munros/creag-nan-damh-1.JPG,"https://www.google.com/maps/search/57.15600,-5.17815/"
149,Creag Pitridh,,Fort William,925,04B,04B: Loch Treig to Loch Ericht,3033,FALSE,56.899712,-4.484972,https://www.walkhighlands.co.uk/munros/creag-pitridh,This diminutive Munro is dwarfed by its higher neighbours Geal Chàrn and Beinn a' Chlachair and its inclusion with them requires little extra effort. However its position high above Lochan na h-Earba makes it a fabulous viewpoint.,https://d3teiib5p3f439.cloudfront.net/munros/creag-pitridh-1.JPG,"https://www.google.com/maps/search/56.91220,-4.57556/"
150,Creise,,Fort William,1100,03C,03C: Glen Etive to Glen Lochy,3608,FALSE,56.614448,-4.871987,https://www.walkhighlands.co.uk/munros/creise,"Criese is the mid-point and summit of a fine ridge running from Clach Leathad (formerly regarded as the true summit) and the steep nose of Sron na Creise, the finest feature of the mountain as seen in the photo.",https://d3teiib5p3f439.cloudfront.net/munros/creise-1.JPG,"https://www.google.com/maps/search/56.63240,-4.82790/"
151,Cruach Ardrain,,Loch Lomond,1046,01C,01C: Loch Lomond to Strathyre,3431,FALSE,56.356438,-4.576152,https://www.walkhighlands.co.uk/munros/cruach-ardrain,"Cruach Àrdrain is a steep mountain rising to the south of Crianlarich, its distinctive outline being a familiar sight from many surrounding hills. It can also be climbed with its neighbour Beinn Tulaichean from the south.",https://d3teiib5p3f439.cloudfront.net/munros/cruach-ardrain-1.JPG,"https://www.google.com/maps/search/56.33300,-4.51570/"
152,Derry Cairngorm,,Cairngorms,1155,08A,08A: Cairngorms,3789,FALSE,57.062801,-3.622004,https://www.walkhighlands.co.uk/munros/derry-cairngorm,"Derry Cairngorm is often mistaken for Ben Macdui in views from Deeside, its great summit cone rising above the foothills. It is one of the best viewpoints for Ben Macdui, seen above the grand Coire Uaine.",https://d3teiib5p3f439.cloudfront.net/munros/derry-cairngorm-1.JPG,"https://www.google.com/maps/search/56.99000,-3.54430/"
153,Driesh,,Angus,948,07A,07A: Braemar to Montrose,3109,FALSE,56.848003,-3.196539,https://www.walkhighlands.co.uk/munros/driesh,"To residents of Dundee, Driesh is one of the best-known and most climbed Munros. It rises steeply above Glen Doll in the upper part of Glen Clova but the summit area is much more rounded and less dramatic. ",https://d3teiib5p3f439.cloudfront.net/munros/driesh-1.JPG,"https://www.google.com/maps/search/56.87040,-3.17584/"
154,Druim Shionnach,,Kintail,985,10A,10A: Glen Shiel to Loch Hourn and Loch Quoich,3232,FALSE,57.126794,-5.182841,https://www.walkhighlands.co.uk/munros/druim-shionnach,Druim Shionnach is the second Munro on the South Glen Shiel Ridge. It is a narrow section of the traverse with a little scrambling on the ascent from the east.,https://d3teiib5p3f439.cloudfront.net/munros/druim-shionnach-1.JPG,"https://www.google.com/maps/search/57.15600,-5.17815/"
155,Eididh nan Clach Geala,,Ullapool,927,15A,15A: Loch Broom to Strath Oykel,3041,FALSE,57.813492,-4.934218,https://www.walkhighlands.co.uk/munros/eididh-nan-clach-geala,Eididh nan Clach Geala rises steeply above Lochan a' Chnapaich; on the other sides its slopes are more gentle. It enjoys stunning views northwest towards the distinctive mountains of Assynt and the Summer Isles.,https://d3teiib5p3f439.cloudfront.net/munros/eididh-nan-clach-geala-1.JPG,"https://www.google.com/maps/search/57.81980,-5.06250/"
156,Fionn Bheinn,,Torridon,933,14B,14B: The Fannaichs,3061,FALSE,57.611148,-5.102696,https://www.walkhighlands.co.uk/munros/fionn-bheinn,"Technically one of the Fannichs, Fionn Bheinn is isolated from the other peaks and is nearly always climbed from Achnasheen. It is a rounded mountain but offers fine views of the nearby Torridon giants.",https://d3teiib5p3f439.cloudfront.net/munros/fionn-bheinn-1.JPG,"https://www.google.com/maps/search/57.57930,-5.07340/"
157,Gairich,,Fort William,919,10B,10B: Knoydart to Glen Kingie,3015,FALSE,57.044879,-5.255827,https://www.walkhighlands.co.uk/munros/gairich,"Gairich is a distinctive solitary Munro on the south side of Loch Quioch. Nearly always climbed from the Loch Quioch Dam, it gives a fine outing.",https://d3teiib5p3f439.cloudfront.net/munros/gairich-1.JPG,"https://www.google.com/maps/search/57.07190,-5.18770/"
158,Garbh Chioch Mhor,,Fort William,1013,10B,10B: Knoydart to Glen Kingie,3323,FALSE,57.008556,-5.444322,https://www.walkhighlands.co.uk/munros/garbh-chioch-mhor,Garbh Chioch Mhòr is an extremely rough and rocky ridge of immense character on the edge of Knoydart. It is normally traversed en-route to the even grander cone-shaped peak of Sgùrr na Cìche.,https://d3teiib5p3f439.cloudfront.net/munros/garbh-chioch-mhor-1.JPG,"https://www.google.com/maps/search/56.97190,-5.31230/"
159,Geal Charn,,Fort William,1050,04B,04B: Loch Treig to Loch Ericht,3444,FALSE,56.897763,-4.457236,https://www.walkhighlands.co.uk/munros/geal-charn,"Geal Chàrn is a rather sprawling mountain in the Beinn a' Chlachair group. Its most notable feature is the summit, with a very fine cairn and cylindrical trig point atop a graceful little cone.",https://d3teiib5p3f439.cloudfront.net/munros/geal-charn-1.JPG,"https://www.google.com/maps/search/56.91220,-4.57556/"
160,Geal Charn,Monadhliath,Cairngorms,926,09B,09B: Glen Albyn and the Monadh Liath,3038,FALSE,57.057418,-4.373572,https://www.walkhighlands.co.uk/munros/geal-charn-monadhliath,"Geal Chàrn is separated from the other Monadhliath Munros by several miles of rolling moorland and bogs, and is usually climbed on its own from either Garva Bridge or the Spey dam. ",https://d3teiib5p3f439.cloudfront.net/munros/geal-charn-monadhliath-1.JPG,"https://www.google.com/maps/search/57.01990,-4.43590/"
161,Geal-charn,Alder,Cairngorms,1132,04B,04B: Loch Treig to Loch Ericht,3714,FALSE,56.837836,-4.509694,https://www.walkhighlands.co.uk/munros/geal-charn-alder,"This is the highest of several Munros by the name of Geal Chàrn. A very remote peak, it is in the centre of a great ridge between Ben Alder and the Loch Laggan area; its finest feature is the Lancet Edge, a dramatic ridge pluging down to Culra.",https://d3teiib5p3f439.cloudfront.net/munros/geal-charn-alder-1.JPG,"https://www.google.com/maps/search/56.85350,-4.42380/"
162,Geal-charn,Drumochter,Cairngorms,917,05A,05A: Loch Ericht to Glen Tromie & Glen Garry,3009,FALSE,56.874433,-4.304519,https://www.walkhighlands.co.uk/munros/geal-charn-drumochter,"There are several Geal Chàrns; this one is on the north side of the Drumochter Pass. It is a rounded dome which can be quickly reached from Balsporran Cottages, and formerly had a line of very prominent cairns some distance short of its summit.",https://d3teiib5p3f439.cloudfront.net/munros/geal-charn-drumochter2.jpg,"https://www.google.com/maps/search/56.88350,-4.25360/"
163,Glas Bheinn Mhor,,Fort William,998,03C,03C: Glen Etive to Glen Lochy,3273,FALSE,56.542434,-5.005252,https://www.walkhighlands.co.uk/munros/glas-bheinn-mhor,Glas Bheinn Mhòr is a peaked summit to the east of mighty Ben Starav in the range on the south side of Glen Etive.,https://d3teiib5p3f439.cloudfront.net/munros/glas-bheinn-mhor-1.JPG,"https://www.google.com/maps/search/56.57620,-5.03566/"
164,Glas Maol,,Cairngorms,1068,07A,07A: Braemar to Montrose,3503,FALSE,56.873059,-3.368236,https://www.walkhighlands.co.uk/munros/glas-maol,"Glas Maol is the highest of a group of four Munros to the east of the Cairnwell Pass, and has been developed for skiing. The road gives a high-level starting point and eases the ascent of these rounded domes, though the alternative route given from Glen Isla via Monega Hill gives a much finer walk.",https://d3teiib5p3f439.cloudfront.net/munros/glas-maol-1.JPG,"https://www.google.com/maps/search/56.90330,-3.40080/"
165,Glas Tulaichean,,Perthshire,1051,06B,06B: Pitlochry to Braemar & Blairgowrie,3448,FALSE,56.865757,-3.558163,https://www.walkhighlands.co.uk/munros/glas-tulaichean,"Glas Tulaichean is a big dome-shaped mountain usually climbed from the Spittal of Glenshee. A landrover track leads almost all the way to the summit, whilst the lower slopes were once accessed by a private railway.",https://d3teiib5p3f439.cloudfront.net/munros/glas-tulaichean-1.JPG,"https://www.google.com/maps/search/56.81410,-3.46720/"
166,Gleouraich,,Fort William,1035,10A,10A: Glen Shiel to Loch Hourn and Loch Quoich,3396,FALSE,57.097163,-5.238035,https://www.walkhighlands.co.uk/munros/gleouraich,"Gleouraich is a very fine mountain on the north side of Loch Quioch. It has grand corries and is part of an excellent ridgewalk, but perhaps the most interesting feature is the amazing stalkers path up the southwest ridge.",https://d3teiib5p3f439.cloudfront.net/munros/gleouraich-1.JPG,"https://www.google.com/maps/search/57.07570,-5.25320/"
167,Gulvain,,Fort William,987,10D,10D: Mallaig to Fort William,3238,FALSE,56.936211,-5.284527,https://www.walkhighlands.co.uk/munros/gulvain,"Gulvain is a fine, remote peak with two summits, the highest mountain in the wild area between Loch Eil and Loch Arkaig. ",https://d3teiib5p3f439.cloudfront.net/munros/gulvain-1.JPG,"https://www.google.com/maps/search/56.85970,-5.34900/"
168,Ladhar Bheinn,,Fort William,1020,10B,10B: Knoydart to Glen Kingie,3346,FALSE,57.075263,-5.591745,https://www.walkhighlands.co.uk/munros/ladhar-bheinn,"Deep in the wild Knoydart peninsula, Ladhar Bheinn usually requires an overnight stay. It is a truly magnificent mountain with a perfect position right on one of the most dramatic parts of the West Highlands seaboard. Dramatic ridges, multiple summits and an awesome corrie.",https://d3teiib5p3f439.cloudfront.net/munros/ladhar-bheinn-1.JPG,"https://www.google.com/maps/search/57.03860,-5.68540/"
169,Mullach an Rathain,Liathach,Torridon,1024,13A,13A: Loch Torridon to Loch Maree,3359,FALSE,57.560875,-5.492498,https://www.walkhighlands.co.uk/munros/mullach-an-rathain-liathach,"Mullach an Rathain is the westernmost of the two Munros on the ridge of Liathach, one of the very finest in the Highlands. It offers tremendous views down Loch Torridon and the sea as a reward for the tackling of its extremely steep slopes.",https://d3teiib5p3f439.cloudfront.net/munros/mullach-an-rathain-liathach-1.JPG,"https://www.google.com/maps/search/57.55270,-5.45160/"
170,Spidean a'Choire Leith,Liathach,Torridon,1055,13A,13A: Loch Torridon to Loch Maree,3461,FALSE,57.564197,-5.463609,https://www.walkhighlands.co.uk/munros/spidean-a-choire-leith-liathach,Spidean a' Choire Lèith is the highest summit of mighty Liathach. The mountain is exceptionally well defended by cliffs and buttresses and there are very few possible routes of ascent - and even these are steep and scrambly. The ridge on both sides of the summit is nothing short of magnificent.,https://d3teiib5p3f439.cloudfront.net/munros/spidean-a-choire-leith-liathach-1.JPG,"https://www.google.com/maps/search/57.55270,-5.45160/"
171,Lochnagar,,Cairngorms,1156,07A,07A: Braemar to Montrose,3792,FALSE,56.960272,-3.245261,https://www.walkhighlands.co.uk/munros/lochnagar,"Lochnagar is one of the most celebrated of the Munros, a pointed summit rising high above one of Scotland's most beautiful corries. It was also featured in a poem by Lord Byron, ending with the following lines:England thy beauties are tame and domesticTo one who has roved on the mountains afarOh! For the crags that are wild and magesticThe steep frowning glories of dark Lochnagar.",https://d3teiib5p3f439.cloudfront.net/munros/lochnagar-1.JPG,"https://www.google.com/maps/search/56.95250,-3.13640/"
172,Luinne Bheinn,,Fort William,939,10B,10B: Knoydart to Glen Kingie,3081,FALSE,57.048325,-5.513607,https://www.walkhighlands.co.uk/munros/luinne-bheinn,"Luinne Bheinn (known to some Gaelic pronunciation-challenged walkers as Loony Bin) is a very rocky and rough mountain in the heart of the Knoydart peninsula, and a superb viewpoint.",https://d3teiib5p3f439.cloudfront.net/munros/luinne-bheinn-1.JPG,"https://www.google.com/maps/search/57.03860,-5.68540/"
173,Lurg Mhor,,Torridon,987,12A,12A: Kyle of Lochalsh to Garve,3238,FALSE,57.413091,-5.223666,https://www.walkhighlands.co.uk/munros/lurg-mhor,"Lurg Mhòr is one of the remotest of all Munros. It lacks the grandeur of neighbouring Bidean a' Choire Sheasgaich but nonetheless enjoys a wild atmosphere, and looks grand when seen from the east.",https://d3teiib5p3f439.cloudfront.net/munros/lurg-mhor-1.JPG,"https://www.google.com/maps/search/57.39150,-5.45534/"
174,Mam Sodhail,,Loch Ness,1179,11A,11A: Loch Duich to Cannich,3869,FALSE,57.279801,-5.120267,https://www.walkhighlands.co.uk/munros/mam-sodhail,"Màm Sodhail is a twin to the neighbouring Càrn Eige, the two highest peaks north of the great glen. It is supported by fine ridges high above the shores of beautiful Loch Affric.",https://d3teiib5p3f439.cloudfront.net/munros/mam-sodhail-1.JPG,"https://www.google.com/maps/search/57.27340,-4.96180/"
175,Maoile Lunndaidh,,Torridon,1005,12A,12A: Kyle of Lochalsh to Garve,3297,FALSE,57.464477,-5.111002,https://www.walkhighlands.co.uk/munros/maoile-lunndaidh,"Maoile Lunndaidh is a very remote mountain at the head of Loch Monar, though it is usually ascended from Glencarron. It takes the form of a spacious plateau with several steep corries. Creag Toll a' Choin has recently been resurveyed as being the highest summit, but the Walkhighlands' route goes over both.",https://d3teiib5p3f439.cloudfront.net/munros/maoile-lunndaidh-1.JPG,"https://www.google.com/maps/search/57.49140,-5.27220/"
176,Maol Chean-dearg,,Torridon,933,13B,13B: Applecross to Achnasheen,3061,FALSE,57.491697,-5.465549,https://www.walkhighlands.co.uk/munros/maol-chean-dearg,"Maol Chean-dearg is a dramatic, steep sided dome of Torridonian sandstone in the wonderful Coulin Forest between Torridon and Strathcarron. On the north side it plunges in crags down to a lochan and has an awe-inspiring outlook over the Torridon peaks.",https://d3teiib5p3f439.cloudfront.net/munros/maol-chean-dearg-1.JPG,"https://www.google.com/maps/search/57.44980,-5.40744/"
177,Maol Chinn-dearg,,Kintail,980,10A,10A: Glen Shiel to Loch Hourn and Loch Quoich,3216,FALSE,57.12756,-5.252651,https://www.walkhighlands.co.uk/munros/maol-chinn-dearg,Maol chinn-dearg is one of the seven Munros on the South Cluanie Ridge. The long ridge to the northeast offers an escape to the glen.,https://d3teiib5p3f439.cloudfront.net/munros/maol-chinn-dearg-1.JPG,"https://www.google.com/maps/search/57.15600,-5.17815/"
178,Mayar,,Angus,929,07A,07A: Braemar to Montrose,3047,FALSE,56.848936,-3.246316,https://www.walkhighlands.co.uk/munros/mayar,"Mayar is a bump-like summit on the southern part of the Angus / Mounth plateau. It is usually ascended with its near neighbour, Driesh.",https://d3teiib5p3f439.cloudfront.net/munros/mayar-1.JPG,"https://www.google.com/maps/search/56.87040,-3.17584/"
179,Meall a' Bhuiridh,,Fort William,1108,03C,03C: Glen Etive to Glen Lochy,3635,FALSE,56.612216,-4.852159,https://www.walkhighlands.co.uk/munros/meall-a-bhuiridh,"Meall a' Bhùiridh is the highest of the Black Mount and has a good position on the edge of Rannoch Moor, making it a grand viewpoint. The sense of wildness on the ascent is rather lessened by ski-tows almost to the summit.",https://d3teiib5p3f439.cloudfront.net/munros/meall-a-bhuiridh-1.JPG,"https://www.google.com/maps/search/56.63240,-4.82790/"
180,Meall a' Choire Leith,,Perthshire,926,02B,02B: Glen Lyon to Glen Dochart & Loch Tay,3037,FALSE,56.566312,-4.259617,https://www.walkhighlands.co.uk/munros/meall-a-choire-leith,"Meall a' Choire Lèith is an outlier of the Ben Lawers group. A vast, flat-topped dome, it is not the most distinctive of the group.",https://d3teiib5p3f439.cloudfront.net/munros/meall-a-choire-leith-1.JPG,"https://www.google.com/maps/search/56.54530,-4.28936/"
181,Meall a' Chrasgaidh,,Ullapool,934,14B,14B: The Fannaichs,3064,FALSE,57.712866,-5.048742,https://www.walkhighlands.co.uk/munros/meall-a-chrasgaidh,"Meall a' Chrasgaidh is a minor, rounded summit just off the ridge between Sgùrr Mòr and Sgùrr nan Clach Geala. It lacks any distinguishing features and is very much overshadowed by its more illustrious neighbours.",https://d3teiib5p3f439.cloudfront.net/munros/meall-a-chrasgaidh-1.JPG,"https://www.google.com/maps/search/57.73730,-5.09000/"
182,Meall Buidhe,Glen Lyon,Perthshire,932,02A,02A: Loch Rannoch to Glen Lyon,3058,FALSE,56.617231,-4.448608,https://www.walkhighlands.co.uk/munros/meall-buidhe-glen-lyon,"Meall Buidhe is a north-south ridge in an area of wide moorlands, though the Glas Choire on its eastern side does add some character. It is one of the easiest and quickest Munros to climb from Loch an Dàmh.",https://d3teiib5p3f439.cloudfront.net/munros/meall-buidhe-glen-lyon-1.JPG,"https://www.google.com/maps/search/56.58580,-4.42486/"
183,Meall Buidhe,Knoydart,Fort William,946,10B,10B: Knoydart to Glen Kingie,3104,FALSE,57.031543,-5.546333,https://www.walkhighlands.co.uk/munros/meall-buidhe-knoydart,"Meall Buidhe is an incredibly rough and rocky mountain, one of the three magnificent Munros on the Knoydart peninsula. Whichever route is chosen, the ascent requires considerable effort.",https://d3teiib5p3f439.cloudfront.net/munros/meall-buidhe-knoydart-1.JPG,"https://www.google.com/maps/search/57.03860,-5.68540/"
184,Meall Chuaich,,Cairngorms,951,05B,05B: Loch Ericht to Glen Tromie & Glen Garry,3119,FALSE,56.96385,-4.112568,https://www.walkhighlands.co.uk/munros/meall-chuaich,"This undistinguished hill hidden up a glen near Dalwhinnie offers one of the shorter and more straightforward ascents amongst the Munros. The usual approach follows some hydro-electric scheme works before an ascent up a broad dome. The position gives it great views over Badenoch, however.",https://d3teiib5p3f439.cloudfront.net/munros/meall-chuaich-1.JPG,"https://www.google.com/maps/search/56.95120,-4.21480/"
185,Meall Corranaich,,Perthshire,1069,02B,02B: Glen Lyon to Glen Dochart & Loch Tay,3507,FALSE,56.540955,-4.25347,https://www.walkhighlands.co.uk/munros/meall-corranaich,"Meall Corranaich is part of the Ben Lawers range, and is well seen from the Lawers visitor centre. It can be climbed from there up a steep ridge but is more usually ascended from the northwest, starting from the summit of the pass.",https://d3teiib5p3f439.cloudfront.net/munros/meall-corranaich-1.JPG,"https://www.google.com/maps/search/56.54530,-4.28936/"
186,Meall Garbh,Carn Mairg,Perthshire,968,02A,02A: Loch Rannoch to Glen Lyon,3174,FALSE,56.637381,-4.207472,https://www.walkhighlands.co.uk/munros/meall-garbh-carn-mairg,"Meall Garbh is one of the group of four rounded Munros on the north side of Glen Lyon, usually climbed with its neighbours. It lacks any distinctive form.",https://d3teiib5p3f439.cloudfront.net/munros/meall-garbh-carn-mairg-1.JPG,"https://www.google.com/maps/search/56.60290,-4.19200/"
187,Meall Garbh,Ben Lawers,Perthshire,1123,02B,02B: Glen Lyon to Glen Dochart & Loch Tay,3685,FALSE,56.566131,-4.207698,https://www.walkhighlands.co.uk/munros/meall-garbh-ben-lawers,"Meall Garbh is one of the Ben Lawers range, exactly the same height as neighbouring An Stùc. It is part of the fine round of the corrie containing Lochan nan Cat.",https://d3teiib5p3f439.cloudfront.net/munros/meall-garbh-ben-lawers-1.JPG,"https://www.google.com/maps/search/56.52950,-4.15186/"
188,Meall Ghaordaidh,,Perthshire,1040,02B,02B: Glen Lyon to Glen Dochart & Loch Tay,3411,FALSE,56.525809,-4.416654,https://www.walkhighlands.co.uk/munros/meall-ghaordaidh,"Meall Ghaordaidh is not a particularly distinguished peak. The usual ascent from Glen Lochay reveals it is a featureless lump.  It does look finer from Glen Lyon to the north, supported by two buttresses.",https://d3teiib5p3f439.cloudfront.net/munros/meall-ghaordaidh-1.JPG,"https://www.google.com/maps/search/56.49610,-4.39556/"
189,Meall Glas,,Loch Lomond,959,02B,02B: Glen Lyon to Glen Dochart & Loch Tay,3147,FALSE,56.455711,-4.546837,https://www.walkhighlands.co.uk/munros/meall-glas,Meall Glas is a fairly undistinguished Munro between Glen Dochart and Glen Lochay. The ascent is possible from either glen.,https://d3teiib5p3f439.cloudfront.net/munros/meall-glas-1.JPG,"https://www.google.com/maps/search/56.41480,-4.51720/"
190,Meall Gorm,,Ullapool,950,14B,14B: The Fannaichs,3116,FALSE,57.680837,-4.983801,https://www.walkhighlands.co.uk/munros/meall-gorm,"Meall Gorm is on the Fannichs ridge. It occupies a fine position, with four fine corries along its northeastern side each holding its own lochan. ",https://d3teiib5p3f439.cloudfront.net/munros/meall-gorm-1.JPG,"https://www.google.com/maps/search/57.72480,-4.89430/"
191,Meall Greigh,,Perthshire,1001,02B,02B: Glen Lyon to Glen Dochart & Loch Tay,3284,FALSE,56.567417,-4.159559,https://www.walkhighlands.co.uk/munros/meall-greigh,"The easternmost of the Lawers range, Meall Greigh is fairly shapeless and sprawling, usually traversed en-route to Meall Garbh. With no higher peaks through the eastern ark it does enjoy extensive views.",https://d3teiib5p3f439.cloudfront.net/munros/meall-greigh-1.JPG,"https://www.google.com/maps/search/56.52950,-4.15186/"
192,Creag Mhor,Meall na Aighean,Perthshire,981,02A,02A: Loch Rannoch to Glen Lyon,3219,FALSE,56.620627,-4.128741,https://www.walkhighlands.co.uk/munros/creag-mhor-meall-na-aighean,Meall na Aighean (named Creag Mhòr on older maps) is one of a group of four rounded Munros on the north side of Glen Lyon.,https://d3teiib5p3f439.cloudfront.net/munros/creag-mhor-meall-na-aighean-1.JPG,"https://www.google.com/maps/search/56.60290,-4.19200/"
193,Meall na Teanga,,Fort William,917,10C,10C: Loch Arkaig to Glen Moriston,3008,FALSE,56.989012,-4.930955,https://www.walkhighlands.co.uk/munros/meall-na-teanga,"Meall na Teanga is a steep dome, one of the two Loch Lochy Munros, rising above the forestry as seen from the A82 on the opposite side of the loch. Its rounded summit has several satellite peaks, divided by scooped coires.",https://d3teiib5p3f439.cloudfront.net/munros/meall-na-teanga-1.JPG,"https://www.google.com/maps/search/57.02130,-4.83917/"
194,Meall nan Ceapraichean,,Ullapool,977,15A,15A: Loch Broom to Strath Oykel,3205,FALSE,57.798514,-4.934012,https://www.walkhighlands.co.uk/munros/meall-nan-ceapraichean,Meall nan Ceapraichean is a stony summit to the north of Beinn Dearg. It is usually traversed together with its neighbours and has particularly good views to the northwest.,https://d3teiib5p3f439.cloudfront.net/munros/meall-nan-ceapraichean-1.JPG,"https://www.google.com/maps/search/57.81980,-5.06250/"
195,Meall nan Eun,,Fort William,928,03C,03C: Glen Etive to Glen Lochy,3045,FALSE,56.561176,-4.942926,https://www.walkhighlands.co.uk/munros/meall-nan-eun,Meall nan Eun is a dome-like Munro with a very rounded summit but extremely steep sides. The plateau-like top of the mountain unfortunately robs the views of any depth.,https://d3teiib5p3f439.cloudfront.net/munros/meall-nan-eun-1.JPG,"https://www.google.com/maps/search/56.57620,-5.03566/"
196,Meall nan Tarmachan,,Perthshire,1044,02B,02B: Glen Lyon to Glen Dochart & Loch Tay,3424,FALSE,56.521673,-4.301344,https://www.walkhighlands.co.uk/munros/meall-nan-tarmachan,Meall nan Tarmachan is the only Munro summit on the Tarmachan ridge. It can be climbed quickly from Lochain na Lairige but is usually enjoyed as part of a very enjoyable and rocky scramble along the whole ridge. The ridge is very prominent from Killin.,https://d3teiib5p3f439.cloudfront.net/munros/meall-nan-tarmachan-1.JPG,"https://www.google.com/maps/search/56.51080,-4.26280/"
197,Monadh Mor,,Cairngorms,1113,08A,08A: Cairngorms,3652,FALSE,57.0268,-3.75007,https://www.walkhighlands.co.uk/munros/monadh-mor,"Monadh Mòr is a vast plateau in the very heart of the wild Cairngorms. Its ascent - usually combined with Beinn Bhrotain - requires a great deal of effort, whether approached across the vast plateaux from Glen Feshie or via the more obvious route past White Bridge and the Linn of Dee, or up Glen Geusachan.",https://d3teiib5p3f439.cloudfront.net/munros/monadh-mor-1.JPG,"https://www.google.com/maps/search/57.06310,-3.89700/"
198,Moruisg,,Torridon,928,12A,12A: Kyle of Lochalsh to Garve,3045,FALSE,57.499712,-5.17063,https://www.walkhighlands.co.uk/munros/moruisg,Moruisg is a very prominent mountain rising like a beached whale above upper Glen Carron. Unfortunately the usual ascent route is up a wide and soggy slope with few features to break the effort.,https://d3teiib5p3f439.cloudfront.net/munros/moruisg-1.JPG,"https://www.google.com/maps/search/57.51760,-5.20773/"
199,Mount Keen,,Angus,939,07B,07B: Braemar to Montrose,3081,FALSE,56.96976,-2.973622,https://www.walkhighlands.co.uk/munros/mount-keen,"Mount Keen is the most easterly of the Munros, a cone-shaped summit rearing above the great sea of the Mounth plateau. It can be climbed quickly from Glen Esk, or more scenically via Glen Tanar.",https://d3teiib5p3f439.cloudfront.net/munros/mount-keen-1.JPG,"https://www.google.com/maps/search/56.91150,-2.91052/"
